Time,header.seq,header.stamp.secs,header.stamp.nsecs,header.frame_id,orientation.x,orientation.y,orientation.z,orientation.w,orientation_covariance_0,orientation_covariance_1,orientation_covariance_2,orientation_covariance_3,orientation_covariance_4,orientation_covariance_5,orientation_covariance_6,orientation_covariance_7,orientation_covariance_8,angular_velocity.x,angular_velocity.y,angular_velocity.z,angular_velocity_covariance_0,angular_velocity_covariance_1,angular_velocity_covariance_2,angular_velocity_covariance_3,angular_velocity_covariance_4,angular_velocity_covariance_5,angular_velocity_covariance_6,angular_velocity_covariance_7,angular_velocity_covariance_8,linear_acceleration.x,linear_acceleration.y,linear_acceleration.z,linear_acceleration_covariance_0,linear_acceleration_covariance_1,linear_acceleration_covariance_2,linear_acceleration_covariance_3,linear_acceleration_covariance_4,linear_acceleration_covariance_5,linear_acceleration_covariance_6,linear_acceleration_covariance_7,linear_acceleration_covariance_8
1710444777.4052439,1719,1710444777,405151844,map,0.0005213544263875963,0.00012885142982428072,6.526125286063913e-08,0.9999998557934231,0.0,0.0,0.0,0.0,0.0,0.0,0.0,0.0,0.0,-0.0,0.0,-0.0,0.0,0.0,0.0,0.0,0.0,0.0,0.0,0.0,0.0,1.7012505262506624e-05,-0.006411758854621717,-9.810436516690755,0.0,0.0,0.0,0.0,0.0,0.0,0.0,0.0,0.0
1710444777.4225066,1720,1710444777,422311544,map,0.0005213544263875963,0.00012885142982428072,6.526125286063913e-08,0.9999998557934231,0.0,0.0,0.0,0.0,0.0,0.0,0.0,0.0,0.0,-0.0,0.0,-0.0,0.0,0.0,0.0,0.0,0.0,0.0,0.0,0.0,0.0,1.683494552625512e-05,-0.0064162624447973125,-9.81043605102949,0.0,0.0,0.0,0.0,0.0,0.0,0.0,0.0,0.0
1710444777.438657,1721,1710444777,438510180,map,0.0005213544263875963,0.00012885142982428072,6.526125286063913e-08,0.9999998557934231,0.0,0.0,0.0,0.0,0.0,0.0,0.0,0.0,0.0,-0.0,0.0,-0.0,0.0,0.0,0.0,0.0,0.0,0.0,0.0,0.0,0.0,1.782329710207694e-05,-0.006420746480837748,-9.81043698235202,0.0,0.0,0.0,0.0,0.0,0.0,0.0,0.0,0.0
1710444777.4552894,1722,1710444777,455190420,map,0.0005213544263875963,0.00012885142982428072,6.526125286063913e-08,0.9999998557934231,0.0,0.0,0.0,0.0,0.0,0.0,0.0,0.0,0.0,-0.0,0.0,-0.0,0.0,0.0,0.0,0.0,0.0,0.0,0.0,0.0,0.0,1.6311936359585785e-05,-0.00642512456075046,-9.810436516690755,0.0,0.0,0.0,0.0,0.0,0.0,0.0,0.0,0.0
1710444777.4724224,1723,1710444777,472279787,map,0.0005213544263875963,0.00012885142982428072,6.526125286063913e-08,0.9999998557934231,0.0,0.0,0.0,0.0,0.0,0.0,0.0,0.0,0.0,-0.0,0.0,-0.0,0.0,0.0,0.0,0.0,0.0,0.0,0.0,0.0,0.0,1.7304991284005732e-05,-0.0064294728547131036,-9.810436516690755,0.0,0.0,0.0,0.0,0.0,0.0,0.0,0.0,0.0
1710444777.4886003,1724,1710444777,488416672,map,0.0005213544263875963,0.00012885142982428072,6.526125286063913e-08,0.9999998557934231,0.0,0.0,0.0,0.0,0.0,0.0,0.0,0.0,0.0,-0.0,0.0,-0.0,0.0,0.0,0.0,0.0,0.0,0.0,0.0,0.0,0.0,1.5870469517488435e-05,-0.0064486136245501275,-9.81043605102949,0.0,0.0,0.0,0.0,0.0,0.0,0.0,0.0,0.0
1710444777.5057762,1725,1710444777,505665541,map,0.0005213544263875963,0.00012885142982428072,6.526125286063913e-08,0.9999998557934231,0.0,0.0,0.0,0.0,0.0,0.0,0.0,0.0,0.0,-0.0,0.0,-0.0,0.0,0.0,0.0,0.0,0.0,0.0,0.0,0.0,0.0,1.6859950856206457e-05,-0.0064381660320334206,-9.81043698235202,0.0,0.0,0.0,0.0,0.0,0.0,0.0,0.0,0.0
1710444777.5224154,1726,1710444777,522282362,map,0.0005213544263875963,0.00012885142982428072,6.526125286063913e-08,0.9999998557934231,0.0,0.0,0.0,0.0,0.0,0.0,0.0,0.0,0.0,-0.0,0.0,-0.0,0.0,0.0,0.0,0.0,0.0,0.0,0.0,0.0,0.0,1.644151980850831e-05,-0.006441919061742027,-9.810436516690755,0.0,0.0,0.0,0.0,0.0,0.0,0.0,0.0,0.0
1710444777.5386133,1727,1710444777,538476467,map,0.0005213544263875963,0.00012885142982428072,6.526125286063913e-08,0.9999998557934231,0.0,0.0,0.0,0.0,0.0,0.0,0.0,0.0,0.0,-0.0,0.0,-0.0,0.0,0.0,0.0,0.0,0.0,0.0,0.0,0.0,0.0,1.635617430412381e-05,-0.006445979728018896,-9.810436516690755,0.0,0.0,0.0,0.0,0.0,0.0,0.0,0.0,0.0
1710444777.5549762,1728,1710444777,554864407,map,0.0005213544263875963,0.00012885142982428072,6.526125286063913e-08,0.9999998557934231,0.0,0.0,0.0,0.0,0.0,0.0,0.0,0.0,0.0,-0.0,0.0,-0.0,0.0,0.0,0.0,0.0,0.0,0.0,0.0,0.0,0.0,1.657854708041278e-05,-0.006450022204402594,-9.810436516690755,0.0,0.0,0.0,0.0,0.0,0.0,0.0,0.0,0.0
1710444777.5720677,1729,1710444777,571896315,map,0.0005213544263875963,0.00012885142982428072,6.526125286063913e-08,0.9999998557934231,0.0,0.0,0.0,0.0,0.0,0.0,0.0,0.0,0.0,-0.0,0.0,-0.0,0.0,0.0,0.0,0.0,0.0,0.0,0.0,0.0,0.0,1.540159659928533e-05,-0.006454048309882438,-9.810436516690755,0.0,0.0,0.0,0.0,0.0,0.0,0.0,0.0,0.0
1710444777.5882065,1730,1710444777,588083506,map,0.0005213544263875963,0.00012885142982428072,6.526125286063913e-08,0.9999998557934231,0.0,0.0,0.0,0.0,0.0,0.0,0.0,0.0,0.0,-0.0,0.0,-0.0,0.0,0.0,0.0,0.0,0.0,0.0,0.0,0.0,0.0,1.6655797727064617e-05,-0.006457968459234558,-9.81043698235202,0.0,0.0,0.0,0.0,0.0,0.0,0.0,0.0,0.0
1710444777.6047826,1731,1710444777,604686737,map,0.0005213544263875963,0.00012885142982428072,6.526125286063913e-08,0.9999998557934231,0.0,0.0,0.0,0.0,0.0,0.0,0.0,0.0,0.0,-0.0,0.0,-0.0,0.0,0.0,0.0,0.0,0.0,0.0,0.0,0.0,0.0,1.593666101107266e-05,-0.00646186132374692,-9.81043698235202,0.0,0.0,0.0,0.0,0.0,0.0,0.0,0.0,0.0
1710444777.6219592,1732,1710444777,621787548,map,0.0005213544263875963,0.00012885142982428072,6.526125286063913e-08,0.9999998557934231,0.0,0.0,0.0,0.0,0.0,0.0,0.0,0.0,0.0,-0.0,0.0,-0.0,0.0,0.0,0.0,0.0,0.0,0.0,0.0,0.0,0.0,1.53578169547901e-05,-0.0064657339520031295,-9.810436516690755,0.0,0.0,0.0,0.0,0.0,0.0,0.0,0.0,0.0
1710444777.63774,1733,1710444777,637619972,map,0.0005213544263875963,0.00012885142982428072,6.526125286063913e-08,0.9999998557934231,0.0,0.0,0.0,0.0,0.0,0.0,0.0,0.0,0.0,-0.0,0.0,-0.0,0.0,0.0,0.0,0.0,0.0,0.0,0.0,0.0,0.0,1.6217620253588393e-05,-0.0064695019883736025,-9.810436516690755,0.0,0.0,0.0,0.0,0.0,0.0,0.0,0.0,0.0
1710444777.6547408,1734,1710444777,654632330,map,0.0005213544263875963,0.00012885142982428072,6.526125286063913e-08,0.9999998557934231,0.0,0.0,0.0,0.0,0.0,0.0,0.0,0.0,0.0,-0.0,0.0,-0.0,0.0,0.0,0.0,0.0,0.0,0.0,0.0,0.0,0.0,1.513271924723892e-05,-0.006473242967277983,-9.81043698235202,0.0,0.0,0.0,0.0,0.0,0.0,0.0,0.0,0.0
1710444777.6716158,1735,1710444777,671483040,map,0.0005209706904765387,0.00012923927437351787,6.56632456527058e-08,0.9999998559433623,0.0,0.0,0.0,0.0,0.0,0.0,0.0,0.0,0.0,-7.674719208726655e-05,7.756894171072573e-05,3.009843219268532e-08,0.0,0.0,0.0,0.0,0.0,0.0,0.0,0.0,0.0,1.5981319952161626e-05,-0.006476963482552545,-9.81043698235202,0.0,0.0,0.0,0.0,0.0,0.0,0.0,0.0,0.0
1710444777.6881795,1736,1710444777,688060284,map,0.0005209706904765387,0.00012923927437351787,6.56632456527058e-08,0.9999998559433623,0.0,0.0,0.0,0.0,0.0,0.0,0.0,0.0,0.0,-0.0,0.0,-0.0,0.0,0.0,0.0,0.0,0.0,0.0,0.0,0.0,0.0,-0.00030739744577451875,-0.006798782483147428,-9.810436516690755,0.0,0.0,0.0,0.0,0.0,0.0,0.0,0.0,0.0
1710444777.7046113,1737,1710444777,704504251,map,0.0005209706904765387,0.00012923927437351787,6.56632456527058e-08,0.9999998559433623,0.0,0.0,0.0,0.0,0.0,0.0,0.0,0.0,0.0,-0.0,0.0,-0.0,0.0,0.0,0.0,0.0,0.0,0.0,0.0,0.0,0.0,0.00034123313042022435,-0.005931019532234528,-9.810437448013285,0.0,0.0,0.0,0.0,0.0,0.0,0.0,0.0,0.0
1710444777.7211275,1738,1710444777,721020222,map,0.0005209706904765387,0.00012923927437351787,6.56632456527058e-08,0.9999998559433623,0.0,0.0,0.0,0.0,0.0,0.0,0.0,0.0,0.0,-0.0,0.0,-0.0,0.0,0.0,0.0,0.0,0.0,0.0,0.0,0.0,0.0,2.8607488351669896e-05,-0.006388358693924925,-9.810437448013285,0.0,0.0,0.0,0.0,0.0,0.0,0.0,0.0,0.0
1710444777.7382252,1739,1710444777,738095284,map,0.0005209706904765387,0.00012923927437351787,6.56632456527058e-08,0.9999998559433623,0.0,0.0,0.0,0.0,0.0,0.0,0.0,0.0,0.0,-0.0,0.0,-0.0,0.0,0.0,0.0,0.0,0.0,0.0,0.0,0.0,0.0,7.959571734466476e-06,-0.006422115725046231,-9.81043698235202,0.0,0.0,0.0,0.0,0.0,0.0,0.0,0.0,0.0
1710444777.7544897,1740,1710444777,754367352,map,0.0005209706904765387,0.00012923927437351787,6.56632456527058e-08,0.9999998559433623,0.0,0.0,0.0,0.0,0.0,0.0,0.0,0.0,0.0,-0.0,0.0,-0.0,0.0,0.0,0.0,0.0,0.0,0.0,0.0,0.0,0.0,1.8533179443464394e-05,-0.006442937013638636,-9.810436516690755,0.0,0.0,0.0,0.0,0.0,0.0,0.0,0.0,0.0
1710444777.771226,1741,1710444777,771081209,map,0.0005209706904765387,0.00012923927437351787,6.56632456527058e-08,0.9999998559433623,0.0,0.0,0.0,0.0,0.0,0.0,0.0,0.0,0.0,-0.0,0.0,-0.0,0.0,0.0,0.0,0.0,0.0,0.0,0.0,0.0,0.0,1.3560536937633987e-05,-0.006477737689880657,-9.81043698235202,0.0,0.0,0.0,0.0,0.0,0.0,0.0,0.0,0.0
1710444777.7881386,1742,1710444777,787990332,map,0.0005209706904765387,0.00012923927437351787,6.56632456527058e-08,0.9999998559433623,0.0,0.0,0.0,0.0,0.0,0.0,0.0,0.0,0.0,-0.0,0.0,-0.0,0.0,0.0,0.0,0.0,0.0,0.0,0.0,0.0,0.0,1.4628769056283467e-05,-0.0064825991662044,-9.810436516690755,0.0,0.0,0.0,0.0,0.0,0.0,0.0,0.0,0.0
1710444777.8047235,1743,1710444777,804580212,map,0.0005209706904765387,0.00012923927437351787,6.56632456527058e-08,0.9999998559433623,0.0,0.0,0.0,0.0,0.0,0.0,0.0,0.0,0.0,-0.0,0.0,-0.0,0.0,0.0,0.0,0.0,0.0,0.0,0.0,0.0,0.0,1.5104268229272016e-05,-0.006486519088182856,-9.81043605102949,0.0,0.0,0.0,0.0,0.0,0.0,0.0,0.0,0.0
1710444777.8222017,1744,1710444777,821951628,map,0.0005209706904765387,0.00012923927437351787,6.56632456527058e-08,0.9999998559433623,0.0,0.0,0.0,0.0,0.0,0.0,0.0,0.0,0.0,-0.0,0.0,-0.0,0.0,0.0,0.0,0.0,0.0,0.0,0.0,0.0,0.0,1.5964124818772958e-05,-0.006490332371912593,-9.81043605102949,0.0,0.0,0.0,0.0,0.0,0.0,0.0,0.0,0.0
1710444777.8381667,1745,1710444777,838010550,map,0.0005209706904765387,0.00012923927437351787,6.56632456527058e-08,0.9999998559433623,0.0,0.0,0.0,0.0,0.0,0.0,0.0,0.0,0.0,-0.0,0.0,-0.0,0.0,0.0,0.0,0.0,0.0,0.0,0.0,0.0,0.0,1.4551033020148317e-05,-0.006508935403032735,-9.810436516690755,0.0,0.0,0.0,0.0,0.0,0.0,0.0,0.0,0.0
1710444777.8554618,1746,1710444777,855326653,map,0.0005209706904765387,0.00012923927437351787,6.56632456527058e-08,0.9999998559433623,0.0,0.0,0.0,0.0,0.0,0.0,0.0,0.0,0.0,-0.0,0.0,-0.0,0.0,0.0,0.0,0.0,0.0,0.0,0.0,0.0,0.0,1.4642849348102195e-05,-0.006512758236456388,-9.81043605102949,0.0,0.0,0.0,0.0,0.0,0.0,0.0,0.0,0.0
1710444777.8720763,1747,1710444777,871986866,map,0.0005209706904765387,0.00012923927437351787,6.56632456527058e-08,0.9999998559433623,0.0,0.0,0.0,0.0,0.0,0.0,0.0,0.0,0.0,-0.0,0.0,-0.0,0.0,0.0,0.0,0.0,0.0,0.0,0.0,0.0,0.0,1.4476308352802127e-05,-0.0065309212995354445,-9.810436516690755,0.0,0.0,0.0,0.0,0.0,0.0,0.0,0.0,0.0
1710444777.8879328,1748,1710444777,887802839,map,0.0005209706904765387,0.00012923927437351787,6.56632456527058e-08,0.9999998559433623,0.0,0.0,0.0,0.0,0.0,0.0,0.0,0.0,0.0,-0.0,0.0,-0.0,0.0,0.0,0.0,0.0,0.0,0.0,0.0,0.0,0.0,1.4686989593018693e-05,-0.0065195280599474855,-9.81043605102949,0.0,0.0,0.0,0.0,0.0,0.0,0.0,0.0,0.0
1710444777.9052615,1749,1710444777,905130625,map,0.0005209706904765387,0.00012923927437351787,6.56632456527058e-08,0.9999998559433623,0.0,0.0,0.0,0.0,0.0,0.0,0.0,0.0,0.0,-0.0,0.0,-0.0,0.0,0.0,0.0,0.0,0.0,0.0,0.0,0.0,0.0,1.467569418450266e-05,-0.006522329758243223,-9.81043605102949,0.0,0.0,0.0,0.0,0.0,0.0,0.0,0.0,0.0
1710444777.9212804,1750,1710444777,921190023,map,0.0005209706904765387,0.00012923927437351787,6.56632456527058e-08,0.9999998559433623,0.0,0.0,0.0,0.0,0.0,0.0,0.0,0.0,0.0,-0.0,0.0,-0.0,0.0,0.0,0.0,0.0,0.0,0.0,0.0,0.0,0.0,1.4722699248775829e-05,-0.006540314560369199,-9.81043605102949,0.0,0.0,0.0,0.0,0.0,0.0,0.0,0.0,0.0
1710444777.9377265,1751,1710444777,937528133,map,0.0005209706904765387,0.00012923927437351787,6.56632456527058e-08,0.9999998559433623,0.0,0.0,0.0,0.0,0.0,0.0,0.0,0.0,0.0,-0.0,0.0,-0.0,0.0,0.0,0.0,0.0,0.0,0.0,0.0,0.0,0.0,1.4536931412048528e-05,-0.006543582829424786,-9.81043605102949,0.0,0.0,0.0,0.0,0.0,0.0,0.0,0.0,0.0
1710444777.954318,1752,1710444777,954217434,map,0.0005209706904765387,0.00012923927437351787,6.56632456527058e-08,0.9999998559433623,0.0,0.0,0.0,0.0,0.0,0.0,0.0,0.0,0.0,-0.0,0.0,-0.0,0.0,0.0,0.0,0.0,0.0,0.0,0.0,0.0,0.0,1.4731082320391994e-05,-0.006546402717613696,-9.81043605102949,0.0,0.0,0.0,0.0,0.0,0.0,0.0,0.0,0.0
1710444777.971409,1753,1710444777,971203327,map,0.0005205832603511846,0.00012962341586477658,6.602067709296402e-08,0.9999998560954071,0.0,0.0,0.0,0.0,0.0,0.0,0.0,0.0,0.0,-7.748603395290029e-05,7.682832557601289e-05,2.1476512125456238e-08,0.0,0.0,0.0,0.0,0.0,0.0,0.0,0.0,0.0,1.4667229400475765e-05,-0.006549104598870655,-9.81043605102949,0.0,0.0,0.0,0.0,0.0,0.0,0.0,0.0,0.0
1710444777.987906,1754,1710444777,987693310,map,0.0005205832603511846,0.00012962341586477658,6.602067709296402e-08,0.9999998560954071,0.0,0.0,0.0,0.0,0.0,0.0,0.0,0.0,0.0,-0.0,0.0,-0.0,0.0,0.0,0.0,0.0,0.0,0.0,0.0,0.0,0.0,-0.00030817998066309766,-0.006862577166983802,-9.810436516690755,0.0,0.0,0.0,0.0,0.0,0.0,0.0,0.0,0.0
1710444778.0047634,1755,1710444778,4529953,map,0.0005205832603511846,0.00012962341586477658,6.602067709296402e-08,0.9999998560954071,0.0,0.0,0.0,0.0,0.0,0.0,0.0,0.0,0.0,-0.0,0.0,-0.0,0.0,0.0,0.0,0.0,0.0,0.0,0.0,0.0,0.0,0.0003396912456514332,-0.005993828778608336,-9.81043698235202,0.0,0.0,0.0,0.0,0.0,0.0,0.0,0.0,0.0
1710444778.0217597,1756,1710444778,21619558,map,0.0005205832603511846,0.00012962341586477658,6.602067709296402e-08,0.9999998560954071,0.0,0.0,0.0,0.0,0.0,0.0,0.0,0.0,0.0,-0.0,0.0,-0.0,0.0,0.0,0.0,0.0,0.0,0.0,0.0,0.0,0.0,2.8549162565796935e-05,-0.006457805659690673,-9.810436516690755,0.0,0.0,0.0,0.0,0.0,0.0,0.0,0.0,0.0
1710444778.0378113,1757,1710444778,37613630,map,0.0005205832603511846,0.00012962341586477658,6.602067709296402e-08,0.9999998560954071,0.0,0.0,0.0,0.0,0.0,0.0,0.0,0.0,0.0,-0.0,0.0,-0.0,0.0,0.0,0.0,0.0,0.0,0.0,0.0,0.0,0.0,4.424772365951654e-06,-0.006490813721960644,-9.81043605102949,0.0,0.0,0.0,0.0,0.0,0.0,0.0,0.0,0.0
1710444778.0548122,1758,1710444778,54662466,map,0.0005205832603511846,0.00012962341586477658,6.602067709296402e-08,0.9999998560954071,0.0,0.0,0.0,0.0,0.0,0.0,0.0,0.0,0.0,-0.0,0.0,-0.0,0.0,0.0,0.0,0.0,0.0,0.0,0.0,0.0,0.0,1.8629755963432556e-05,-0.006510705507011986,-9.81043605102949,0.0,0.0,0.0,0.0,0.0,0.0,0.0,0.0,0.0
1710444778.0712478,1759,1710444778,71102619,map,0.0005205832603511846,0.00012962341586477658,6.602067709296402e-08,0.9999998560954071,0.0,0.0,0.0,0.0,0.0,0.0,0.0,0.0,0.0,-0.0,0.0,-0.0,0.0,0.0,0.0,0.0,0.0,0.0,0.0,0.0,0.0,1.35598175131482e-05,-0.006544588957890834,-9.81043605102949,0.0,0.0,0.0,0.0,0.0,0.0,0.0,0.0,0.0
1710444778.087587,1760,1710444778,87341547,map,0.0005205832603511846,0.00012962341586477658,6.602067709296402e-08,0.9999998560954071,0.0,0.0,0.0,0.0,0.0,0.0,0.0,0.0,0.0,-0.0,0.0,-0.0,0.0,0.0,0.0,0.0,0.0,0.0,0.0,0.0,0.0,1.309042056970236e-05,-0.00654853684683004,-9.81043605102949,0.0,0.0,0.0,0.0,0.0,0.0,0.0,0.0,0.0
1710444778.104709,1761,1710444778,104533434,map,0.0005205832603511846,0.00012962341586477658,6.602067709296402e-08,0.9999998560954071,0.0,0.0,0.0,0.0,0.0,0.0,0.0,0.0,0.0,-0.0,0.0,-0.0,0.0,0.0,0.0,0.0,0.0,0.0,0.0,0.0,0.0,1.4747059317135904e-05,-0.00655161139352335,-9.81043605102949,0.0,0.0,0.0,0.0,0.0,0.0,0.0,0.0,0.0
1710444778.1214902,1762,1710444778,121403456,map,0.0005205832603511846,0.00012962341586477658,6.602067709296402e-08,0.9999998560954071,0.0,0.0,0.0,0.0,0.0,0.0,0.0,0.0,0.0,-0.0,0.0,-0.0,0.0,0.0,0.0,0.0,0.0,0.0,0.0,0.0,0.0,1.4560896241030608e-05,-0.0065545915801458335,-9.81043605102949,0.0,0.0,0.0,0.0,0.0,0.0,0.0,0.0,0.0
1710444778.1379435,1763,1710444778,137811422,map,0.0005205832603511846,0.00012962341586477658,6.602067709296402e-08,0.9999998560954071,0.0,0.0,0.0,0.0,0.0,0.0,0.0,0.0,0.0,-0.0,0.0,-0.0,0.0,0.0,0.0,0.0,0.0,0.0,0.0,0.0,0.0,1.2986553437522374e-05,-0.006572283979739078,-9.81043605102949,0.0,0.0,0.0,0.0,0.0,0.0,0.0,0.0,0.0
1710444778.154734,1764,1710444778,154510736,map,0.0005205832603511846,0.00012962341586477658,6.602067709296402e-08,0.9999998560954071,0.0,0.0,0.0,0.0,0.0,0.0,0.0,0.0,0.0,-0.0,0.0,-0.0,0.0,0.0,0.0,0.0,0.0,0.0,0.0,0.0,0.0,1.4827338207965876e-05,-0.006575244384852737,-9.81043605102949,0.0,0.0,0.0,0.0,0.0,0.0,0.0,0.0,0.0
1710444778.171672,1765,1710444778,171519279,map,0.0005205832603511846,0.00012962341586477658,6.602067709296402e-08,0.9999998560954071,0.0,0.0,0.0,0.0,0.0,0.0,0.0,0.0,0.0,-0.0,0.0,-0.0,0.0,0.0,0.0,0.0,0.0,0.0,0.0,0.0,0.0,1.325835467278756e-05,-0.006592567529614601,-9.81043605102949,0.0,0.0,0.0,0.0,0.0,0.0,0.0,0.0,0.0
1710444778.1877797,1766,1710444778,187602282,map,0.0005205832603511846,0.00012962341586477658,6.602067709296402e-08,0.9999998560954071,0.0,0.0,0.0,0.0,0.0,0.0,0.0,0.0,0.0,-0.0,0.0,-0.0,0.0,0.0,0.0,0.0,0.0,0.0,0.0,0.0,0.0,1.4682223183755766e-05,-0.006580303903638386,-9.81043605102949,0.0,0.0,0.0,0.0,0.0,0.0,0.0,0.0,0.0
1710444778.204755,1767,1710444778,204582214,map,0.0005205832603511846,0.00012962341586477658,6.602067709296402e-08,0.9999998560954071,0.0,0.0,0.0,0.0,0.0,0.0,0.0,0.0,0.0,-0.0,0.0,-0.0,0.0,0.0,0.0,0.0,0.0,0.0,0.0,0.0,0.0,1.2988800972906673e-05,-0.0065971097733131855,-9.81043605102949,0.0,0.0,0.0,0.0,0.0,0.0,0.0,0.0,0.0
1710444778.2214205,1768,1710444778,221326590,map,0.0005205832603511846,0.00012962341586477658,6.602067709296402e-08,0.9999998560954071,0.0,0.0,0.0,0.0,0.0,0.0,0.0,0.0,0.0,-0.0,0.0,-0.0,0.0,0.0,0.0,0.0,0.0,0.0,0.0,0.0,0.0,1.506045616626601e-05,-0.006599602243425009,-9.81043605102949,0.0,0.0,0.0,0.0,0.0,0.0,0.0,0.0,0.0
1710444778.2378476,1769,1710444778,237722158,map,0.0005205832603511846,0.00012962341586477658,6.602067709296402e-08,0.9999998560954071,0.0,0.0,0.0,0.0,0.0,0.0,0.0,0.0,0.0,-0.0,0.0,-0.0,0.0,0.0,0.0,0.0,0.0,0.0,0.0,0.0,0.0,1.3210712340528524e-05,-0.006586866362347329,-9.81043605102949,0.0,0.0,0.0,0.0,0.0,0.0,0.0,0.0,0.0
1710444778.2550306,1770,1710444778,254763365,map,0.0005205832603511846,0.00012962341586477658,6.602067709296402e-08,0.9999998560954071,0.0,0.0,0.0,0.0,0.0,0.0,0.0,0.0,0.0,-0.0,0.0,-0.0,0.0,0.0,0.0,0.0,0.0,0.0,0.0,0.0,0.0,1.4992923523331739e-05,-0.0066035853752822345,-9.81043605102949,0.0,0.0,0.0,0.0,0.0,0.0,0.0,0.0,0.0
1710444778.2721834,1771,1710444778,272035837,map,0.0005201958612318891,0.00013000394167799367,6.646360499984575e-08,0.999999856247608,0.0,0.0,0.0,0.0,0.0,0.0,0.0,0.0,0.0,-7.747983502915591e-05,7.61051989621354e-05,3.8952776582411926e-08,0.0,0.0,0.0,0.0,0.0,0.0,0.0,0.0,0.0,1.3038444371050247e-05,-0.006605953017252168,-9.81043605102949,0.0,0.0,0.0,0.0,0.0,0.0,0.0,0.0,0.0
1710444778.2884593,1772,1710444778,288236141,map,0.0005201958612318891,0.00013000394167799367,6.646360499984575e-08,0.999999856247608,0.0,0.0,0.0,0.0,0.0,0.0,0.0,0.0,0.0,-0.0,0.0,-0.0,0.0,0.0,0.0,0.0,0.0,0.0,0.0,0.0,0.0,-0.0003074106369997816,-0.006926034655675509,-9.810370858452362,0.0,0.0,0.0,0.0,0.0,0.0,0.0,0.0,0.0
1710444778.3048913,1773,1710444778,304774761,map,0.0005201958612318891,0.00013000394167799367,6.646360499984575e-08,0.999999856247608,0.0,0.0,0.0,0.0,0.0,0.0,0.0,0.0,0.0,-0.0,0.0,-0.0,0.0,0.0,0.0,0.0,0.0,0.0,0.0,0.0,0.0,0.0003553001564067059,-0.0061750774216423054,-9.8105068315418,0.0,0.0,0.0,0.0,0.0,0.0,0.0,0.0,0.0
1710444778.3215673,1774,1710444778,321461916,map,0.0005201958612318891,0.00013000394167799367,6.646360499984575e-08,0.999999856247608,0.0,0.0,0.0,0.0,0.0,0.0,0.0,0.0,0.0,-0.0,0.0,-0.0,0.0,0.0,0.0,0.0,0.0,0.0,0.0,0.0,0.0,-7.982729431347991e-06,-0.006409315269847793,-9.810439310658346,0.0,0.0,0.0,0.0,0.0,0.0,0.0,0.0,0.0
1710444778.3385854,1775,1710444778,338387012,map,0.0005201958612318891,0.00013000394167799367,6.646360499984575e-08,0.999999856247608,0.0,0.0,0.0,0.0,0.0,0.0,0.0,0.0,0.0,-0.0,0.0,-0.0,0.0,0.0,0.0,0.0,0.0,0.0,0.0,0.0,0.0,3.1469023224700984e-05,-0.0065409157363385175,-9.810436516690755,0.0,0.0,0.0,0.0,0.0,0.0,0.0,0.0,0.0
1710444778.3552735,1776,1710444778,355082512,map,0.0005201958612318891,0.00013000394167799367,6.646360499984575e-08,0.999999856247608,0.0,0.0,0.0,0.0,0.0,0.0,0.0,0.0,0.0,-0.0,0.0,-0.0,0.0,0.0,0.0,0.0,0.0,0.0,0.0,0.0,0.0,1.1311152365953038e-05,-0.0065629896264494435,-9.810436516690755,0.0,0.0,0.0,0.0,0.0,0.0,0.0,0.0,0.0
1710444778.3720727,1777,1710444778,371924400,map,0.0005201958612318891,0.00013000394167799367,6.646360499984575e-08,0.999999856247608,0.0,0.0,0.0,0.0,0.0,0.0,0.0,0.0,0.0,-0.0,0.0,-0.0,0.0,0.0,0.0,0.0,0.0,0.0,0.0,0.0,0.0,1.3715007144694451e-05,-0.006566658527902132,-9.810436516690755,0.0,0.0,0.0,0.0,0.0,0.0,0.0,0.0,0.0
1710444778.388401,1778,1710444778,388210058,map,0.0005201958612318891,0.00013000394167799367,6.646360499984575e-08,0.999999856247608,0.0,0.0,0.0,0.0,0.0,0.0,0.0,0.0,0.0,-0.0,0.0,-0.0,0.0,0.0,0.0,0.0,0.0,0.0,0.0,0.0,0.0,1.3015423231594275e-05,-0.006599381008849311,-9.81043605102949,0.0,0.0,0.0,0.0,0.0,0.0,0.0,0.0,0.0
1710444778.4051676,1779,1710444778,404937506,map,0.0005201958612318891,0.00013000394167799367,6.646360499984575e-08,0.999999856247608,0.0,0.0,0.0,0.0,0.0,0.0,0.0,0.0,0.0,-0.0,0.0,-0.0,0.0,0.0,0.0,0.0,0.0,0.0,0.0,0.0,0.0,1.4093502583915253e-05,-0.006602578564695193,-9.81043605102949,0.0,0.0,0.0,0.0,0.0,0.0,0.0,0.0,0.0
1710444778.4217,1780,1710444778,421625137,map,0.0005201958612318891,0.00013000394167799367,6.646360499984575e-08,0.999999856247608,0.0,0.0,0.0,0.0,0.0,0.0,0.0,0.0,0.0,-0.0,0.0,-0.0,0.0,0.0,0.0,0.0,0.0,0.0,0.0,0.0,0.0,1.3346770165733938e-05,-0.00660488959062263,-9.81043605102949,0.0,0.0,0.0,0.0,0.0,0.0,0.0,0.0,0.0
1710444778.438291,1781,1710444778,438116074,map,0.0005201958612318891,0.00013000394167799367,6.646360499984575e-08,0.999999856247608,0.0,0.0,0.0,0.0,0.0,0.0,0.0,0.0,0.0,-0.0,0.0,-0.0,0.0,0.0,0.0,0.0,0.0,0.0,0.0,0.0,0.0,1.3951908298793606e-05,-0.0066071758328206205,-9.81043605102949,0.0,0.0,0.0,0.0,0.0,0.0,0.0,0.0,0.0
1710444778.454764,1782,1710444778,454597950,map,0.0005201958612318891,0.00013000394167799367,6.646360499984575e-08,0.999999856247608,0.0,0.0,0.0,0.0,0.0,0.0,0.0,0.0,0.0,-0.0,0.0,-0.0,0.0,0.0,0.0,0.0,0.0,0.0,0.0,0.0,0.0,1.4236168456249369e-05,-0.006624254778266657,-9.81043605102949,0.0,0.0,0.0,0.0,0.0,0.0,0.0,0.0,0.0
1710444778.4731953,1783,1710444778,473104715,map,0.0005201958612318891,0.00013000394167799367,6.646360499984575e-08,0.999999856247608,0.0,0.0,0.0,0.0,0.0,0.0,0.0,0.0,0.0,-0.0,0.0,-0.0,0.0,0.0,0.0,0.0,0.0,0.0,0.0,0.0,0.0,1.2540354381029632e-05,-0.006626555117631857,-9.81043605102949,0.0,0.0,0.0,0.0,0.0,0.0,0.0,0.0,0.0
1710444778.4883347,1784,1710444778,488219023,map,0.0005201958612318891,0.00013000394167799367,6.646360499984575e-08,0.999999856247608,0.0,0.0,0.0,0.0,0.0,0.0,0.0,0.0,0.0,-0.0,0.0,-0.0,0.0,0.0,0.0,0.0,0.0,0.0,0.0,0.0,0.0,1.498874375588716e-05,-0.006628381837653603,-9.81043605102949,0.0,0.0,0.0,0.0,0.0,0.0,0.0,0.0,0.0
1710444778.505242,1785,1710444778,505056620,map,0.0005201958612318891,0.00013000394167799367,6.646360499984575e-08,0.999999856247608,0.0,0.0,0.0,0.0,0.0,0.0,0.0,0.0,0.0,-0.0,0.0,-0.0,0.0,0.0,0.0,0.0,0.0,0.0,0.0,0.0,0.0,1.3340128811916077e-05,-0.006630141937191608,-9.81043605102949,0.0,0.0,0.0,0.0,0.0,0.0,0.0,0.0,0.0
1710444778.5215032,1786,1710444778,521383047,map,0.0005201958612318891,0.00013000394167799367,6.646360499984575e-08,0.999999856247608,0.0,0.0,0.0,0.0,0.0,0.0,0.0,0.0,0.0,-0.0,0.0,-0.0,0.0,0.0,0.0,0.0,0.0,0.0,0.0,0.0,0.0,1.3923516788777996e-05,-0.00664669132937269,-9.81043605102949,0.0,0.0,0.0,0.0,0.0,0.0,0.0,0.0,0.0
1710444778.5381527,1787,1710444778,538025379,map,0.0005201958612318891,0.00013000394167799367,6.646360499984575e-08,0.999999856247608,0.0,0.0,0.0,0.0,0.0,0.0,0.0,0.0,0.0,-0.0,0.0,-0.0,0.0,0.0,0.0,0.0,0.0,0.0,0.0,0.0,0.0,1.3517927024061945e-05,-0.006648510773437168,-9.81043605102949,0.0,0.0,0.0,0.0,0.0,0.0,0.0,0.0,0.0
1710444778.555686,1788,1710444778,555583715,map,0.0005201958612318891,0.00013000394167799367,6.646360499984575e-08,0.999999856247608,0.0,0.0,0.0,0.0,0.0,0.0,0.0,0.0,0.0,-0.0,0.0,-0.0,0.0,0.0,0.0,0.0,0.0,0.0,0.0,0.0,0.0,1.3788105557431413e-05,-0.006649849322200925,-9.81043605102949,0.0,0.0,0.0,0.0,0.0,0.0,0.0,0.0,0.0
1710444778.5721374,1789,1710444778,571971655,map,0.0005201958612318891,0.00013000394167799367,6.646360499984575e-08,0.999999856247608,0.0,0.0,0.0,0.0,0.0,0.0,0.0,0.0,0.0,-0.0,0.0,-0.0,0.0,0.0,0.0,0.0,0.0,0.0,0.0,0.0,0.0,1.3607318180956023e-05,-0.006636355832072652,-9.81043605102949,0.0,0.0,0.0,0.0,0.0,0.0,0.0,0.0,0.0
1710444778.5882273,1790,1710444778,588015318,map,0.0005201958612318891,0.00013000394167799367,6.646360499984575e-08,0.999999856247608,0.0,0.0,0.0,0.0,0.0,0.0,0.0,0.0,0.0,-0.0,0.0,-0.0,0.0,0.0,0.0,0.0,0.0,0.0,0.0,0.0,0.0,1.4342387040683824e-05,-0.006652388176540335,-9.81043605102949,0.0,0.0,0.0,0.0,0.0,0.0,0.0,0.0,0.0
1710444778.6044736,1791,1710444778,604349852,map,0.0005201958612318891,0.00013000394167799367,6.646360499984575e-08,0.999999856247608,0.0,0.0,0.0,0.0,0.0,0.0,0.0,0.0,0.0,-0.0,0.0,-0.0,0.0,0.0,0.0,0.0,0.0,0.0,0.0,0.0,0.0,1.335397506873233e-05,-0.006654117125886284,-9.81043605102949,0.0,0.0,0.0,0.0,0.0,0.0,0.0,0.0,0.0
1710444778.6210506,1792,1710444778,620949984,map,0.0005198046748109617,0.00013038098863797737,6.686377873143537e-08,0.9999998564019364,0.0,0.0,0.0,0.0,0.0,0.0,0.0,0.0,0.0,-7.823729439931296e-05,7.540942396548625e-05,3.066542296280383e-08,0.0,0.0,0.0,0.0,0.0,0.0,0.0,0.0,0.0,1.4536852808262118e-05,-0.006655430208799601,-9.81043605102949,0.0,0.0,0.0,0.0,0.0,0.0,0.0,0.0,0.0
1710444778.638031,1793,1710444778,637772322,map,0.0005198046748109617,0.00013038098863797737,6.686377873143537e-08,0.9999998564019364,0.0,0.0,0.0,0.0,0.0,0.0,0.0,0.0,0.0,-0.0,0.0,-0.0,0.0,0.0,0.0,0.0,0.0,0.0,0.0,0.0,0.0,-0.00027723993161104935,-0.006989730431967762,-9.810435585368225,0.0,0.0,0.0,0.0,0.0,0.0,0.0,0.0,0.0
1710444778.6545167,1794,1710444778,654402733,map,0.0005198046748109617,0.00013038098863797737,6.686377873143537e-08,0.9999998564019364,0.0,0.0,0.0,0.0,0.0,0.0,0.0,0.0,0.0,-0.0,0.0,-0.0,0.0,0.0,0.0,0.0,0.0,0.0,0.0,0.0,0.0,0.00032236037373768506,-0.006208547279825167,-9.81043698235202,0.0,0.0,0.0,0.0,0.0,0.0,0.0,0.0,0.0
1710444778.6712737,1795,1710444778,671148539,map,0.0005198046748109617,0.00013038098863797737,6.686377873143537e-08,0.9999998564019364,0.0,0.0,0.0,0.0,0.0,0.0,0.0,0.0,0.0,-0.0,0.0,-0.0,0.0,0.0,0.0,0.0,0.0,0.0,0.0,0.0,0.0,-8.00546391123262e-06,-0.006471332119000318,-9.810436516690755,0.0,0.0,0.0,0.0,0.0,0.0,0.0,0.0,0.0
1710444778.6884918,1796,1710444778,688282967,map,0.0005198046748109617,0.00013038098863797737,6.686377873143537e-08,0.9999998564019364,0.0,0.0,0.0,0.0,0.0,0.0,0.0,0.0,0.0,-0.0,0.0,-0.0,0.0,0.0,0.0,0.0,0.0,0.0,0.0,0.0,0.0,3.076828157108572e-05,-0.006573222578226727,-9.81043605102949,0.0,0.0,0.0,0.0,0.0,0.0,0.0,0.0,0.0
1710444778.7043948,1797,1710444778,704233170,map,0.0005198046748109617,0.00013038098863797737,6.686377873143537e-08,0.9999998564019364,0.0,0.0,0.0,0.0,0.0,0.0,0.0,0.0,0.0,-0.0,0.0,-0.0,0.0,0.0,0.0,0.0,0.0,0.0,0.0,0.0,0.0,1.2003296896963159e-05,-0.006608977314365592,-9.810436516690755,0.0,0.0,0.0,0.0,0.0,0.0,0.0,0.0,0.0
1710444778.721147,1798,1710444778,721036911,map,0.0005198046748109617,0.00013038098863797737,6.686377873143537e-08,0.9999998564019364,0.0,0.0,0.0,0.0,0.0,0.0,0.0,0.0,0.0,-0.0,0.0,-0.0,0.0,0.0,0.0,0.0,0.0,0.0,0.0,0.0,0.0,1.2392219106246783e-05,-0.006627251108419331,-9.810436516690755,0.0,0.0,0.0,0.0,0.0,0.0,0.0,0.0,0.0
1710444778.7382004,1799,1710444778,738060236,map,0.0005198046748109617,0.00013038098863797737,6.686377873143537e-08,0.9999998564019364,0.0,0.0,0.0,0.0,0.0,0.0,0.0,0.0,0.0,-0.0,0.0,-0.0,0.0,0.0,0.0,0.0,0.0,0.0,0.0,0.0,0.0,1.4646048122528813e-05,-0.006644646103259221,-9.81043605102949,0.0,0.0,0.0,0.0,0.0,0.0,0.0,0.0,0.0
1710444778.7551868,1800,1710444778,755079985,map,0.0005198046748109617,0.00013038098863797737,6.686377873143537e-08,0.9999998564019364,0.0,0.0,0.0,0.0,0.0,0.0,0.0,0.0,0.0,-0.0,0.0,-0.0,0.0,0.0,0.0,0.0,0.0,0.0,0.0,0.0,0.0,1.3861936717329825e-05,-0.006646804106710353,-9.81043605102949,0.0,0.0,0.0,0.0,0.0,0.0,0.0,0.0,0.0
1710444778.7717135,1801,1710444778,771606684,map,0.0005198046748109617,0.00013038098863797737,6.686377873143537e-08,0.9999998564019364,0.0,0.0,0.0,0.0,0.0,0.0,0.0,0.0,0.0,-0.0,0.0,-0.0,0.0,0.0,0.0,0.0,0.0,0.0,0.0,0.0,0.0,1.4050012041481906e-05,-0.006648493493038655,-9.81043605102949,0.0,0.0,0.0,0.0,0.0,0.0,0.0,0.0,0.0
1710444778.7884743,1802,1710444778,788234711,map,0.0005198046748109617,0.00013038098863797737,6.686377873143537e-08,0.9999998564019364,0.0,0.0,0.0,0.0,0.0,0.0,0.0,0.0,0.0,-0.0,0.0,-0.0,0.0,0.0,0.0,0.0,0.0,0.0,0.0,0.0,0.0,1.3899257084574581e-05,-0.006650168554826084,-9.81043605102949,0.0,0.0,0.0,0.0,0.0,0.0,0.0,0.0,0.0
1710444778.8046954,1803,1710444778,804574013,map,0.0005198046748109617,0.00013038098863797737,6.686377873143537e-08,0.9999998564019364,0.0,0.0,0.0,0.0,0.0,0.0,0.0,0.0,0.0,-0.0,0.0,-0.0,0.0,0.0,0.0,0.0,0.0,0.0,0.0,0.0,0.0,1.32630811140235e-05,-0.006681433115835568,-9.81043605102949,0.0,0.0,0.0,0.0,0.0,0.0,0.0,0.0,0.0
1710444778.821703,1804,1710444778,821515322,map,0.0005198046748109617,0.00013038098863797737,6.686377873143537e-08,0.9999998564019364,0.0,0.0,0.0,0.0,0.0,0.0,0.0,0.0,0.0,-0.0,0.0,-0.0,0.0,0.0,0.0,0.0,0.0,0.0,0.0,0.0,0.0,1.4774842869052105e-05,-0.006653600078172885,-9.81043605102949,0.0,0.0,0.0,0.0,0.0,0.0,0.0,0.0,0.0
1710444778.8383598,1805,1710444778,838206291,map,0.0005198046748109617,0.00013038098863797737,6.686377873143537e-08,0.9999998564019364,0.0,0.0,0.0,0.0,0.0,0.0,0.0,0.0,0.0,-0.0,0.0,-0.0,0.0,0.0,0.0,0.0,0.0,0.0,0.0,0.0,0.0,1.3358786775092511e-05,-0.006683979018758582,-9.810436516690755,0.0,0.0,0.0,0.0,0.0,0.0,0.0,0.0,0.0
1710444778.8549423,1806,1710444778,854850769,map,0.0005198046748109617,0.00013038098863797737,6.686377873143537e-08,0.9999998564019364,0.0,0.0,0.0,0.0,0.0,0.0,0.0,0.0,0.0,-0.0,0.0,-0.0,0.0,0.0,0.0,0.0,0.0,0.0,0.0,0.0,0.0,1.42031895049139e-05,-0.00668570933234652,-9.810436516690755,0.0,0.0,0.0,0.0,0.0,0.0,0.0,0.0,0.0
1710444778.8713832,1807,1710444778,871303082,map,0.0005198046748109617,0.00013038098863797737,6.686377873143537e-08,0.9999998564019364,0.0,0.0,0.0,0.0,0.0,0.0,0.0,0.0,0.0,-0.0,0.0,-0.0,0.0,0.0,0.0,0.0,0.0,0.0,0.0,0.0,0.0,1.4120868691994022e-05,-0.006671785423871077,-9.810436516690755,0.0,0.0,0.0,0.0,0.0,0.0,0.0,0.0,0.0
1710444778.8883383,1808,1710444778,888203859,map,0.0005198046748109617,0.00013038098863797737,6.686377873143537e-08,0.9999998564019364,0.0,0.0,0.0,0.0,0.0,0.0,0.0,0.0,0.0,-0.0,0.0,-0.0,0.0,0.0,0.0,0.0,0.0,0.0,0.0,0.0,0.0,1.3153395969381608e-05,-0.0066873573366678565,-9.810436516690755,0.0,0.0,0.0,0.0,0.0,0.0,0.0,0.0,0.0
1710444778.9045157,1809,1710444778,904410601,map,0.0005198046748109617,0.00013038098863797737,6.686377873143537e-08,0.9999998564019364,0.0,0.0,0.0,0.0,0.0,0.0,0.0,0.0,0.0,-0.0,0.0,-0.0,0.0,0.0,0.0,0.0,0.0,0.0,0.0,0.0,0.0,1.4330501437635932e-05,-0.006688629719695202,-9.810436516690755,0.0,0.0,0.0,0.0,0.0,0.0,0.0,0.0,0.0
1710444778.9213781,1810,1710444778,921255350,map,0.0005198046748109617,0.00013038098863797737,6.686377873143537e-08,0.9999998564019364,0.0,0.0,0.0,0.0,0.0,0.0,0.0,0.0,0.0,-0.0,0.0,-0.0,0.0,0.0,0.0,0.0,0.0,0.0,0.0,0.0,0.0,1.4271178227445024e-05,-0.006689488055279231,-9.810436516690755,0.0,0.0,0.0,0.0,0.0,0.0,0.0,0.0,0.0
1710444778.9382682,1811,1710444778,938139439,map,0.0005198046748109617,0.00013038098863797737,6.686377873143537e-08,0.9999998564019364,0.0,0.0,0.0,0.0,0.0,0.0,0.0,0.0,0.0,-0.0,0.0,-0.0,0.0,0.0,0.0,0.0,0.0,0.0,0.0,0.0,0.0,1.3664520421181428e-05,-0.006690331838948723,-9.810436516690755,0.0,0.0,0.0,0.0,0.0,0.0,0.0,0.0,0.0
1710444778.954698,1812,1710444778,954606295,map,0.0005194060688172153,0.00013075481282214302,6.735217741414924e-08,0.9999998565602448,0.0,0.0,0.0,0.0,0.0,0.0,0.0,0.0,0.0,-7.972121151399244e-05,7.47648780545006e-05,4.845228172675503e-08,0.0,0.0,0.0,0.0,0.0,0.0,0.0,0.0,0.0,1.5055588948757234e-05,-0.006691175167870886,-9.810436516690755,0.0,0.0,0.0,0.0,0.0,0.0,0.0,0.0,0.0
1710444778.9717376,1813,1710444778,971548796,map,0.0005194060688172153,0.00013075481282214302,6.735217741414924e-08,0.9999998565602448,0.0,0.0,0.0,0.0,0.0,0.0,0.0,0.0,0.0,-0.0,0.0,-0.0,0.0,0.0,0.0,0.0,0.0,0.0,0.0,0.0,0.0,-0.00030215733190301354,-0.00702501814259945,-9.81043605102949,0.0,0.0,0.0,0.0,0.0,0.0,0.0,0.0,0.0
1710444778.9904716,1814,1710444778,990348339,map,0.0005174167950515917,0.00013149056564248132,6.758774064196539e-08,0.9999998574950333,0.0,0.0,0.0,0.0,0.0,0.0,0.0,0.0,0.0,-0.00039785478935352666,0.00014715056994330297,-8.104697077359e-08,0.0,0.0,0.0,0.0,0.0,0.0,0.0,0.0,0.0,0.0003342421611712665,-0.006095364762291566,-9.810436516690755,0.0,0.0,0.0,0.0,0.0,0.0,0.0,0.0,0.0
1710444779.0046222,1815,1710444779,4505157,map,0.0005148202681050344,0.00013221840902076802,-5.663879166403204e-09,0.999999858739182,0.0,0.0,0.0,0.0,0.0,0.0,0.0,0.0,0.0,-0.0005193034970723783,0.00014556111538153364,-1.4793547375820426e-05,0.0,0.0,0.0,0.0,0.0,0.0,0.0,0.0,0.0,-0.0005840407417841164,-0.0051650608659291365,-9.809963870506587,0.0,0.0,0.0,0.0,0.0,0.0,0.0,0.0,0.0
1710444779.0216134,1816,1710444779,21539211,map,0.0005132779675580021,0.0001326125107730778,-2.6501085044842393e-07,0.9999998594797801,0.0,0.0,0.0,0.0,0.0,0.0,0.0,0.0,0.0,-0.00030845326397903046,7.87936947028504e-05,-5.195062782652606e-05,0.0,0.0,0.0,0.0,0.0,0.0,0.0,0.0,0.0,-1.0099296918678481e-05,-0.004404906708221599,-9.810434188384429,0.0,0.0,0.0,0.0,0.0,0.0,0.0,0.0,0.0
1710444779.0380867,1817,1710444779,37952423,map,0.0005140043989931541,0.00013274541336807274,-3.53877581023404e-07,0.999999859088994,0.0,0.0,0.0,0.0,0.0,0.0,0.0,0.0,0.0,0.00014528865901564176,2.6571428556739263e-05,-1.7767739356299428e-05,0.0,0.0,0.0,0.0,0.0,0.0,0.0,0.0,0.0,0.0023593177348056912,-0.005494949357882219,-9.810447226899853,0.0,0.0,0.0,0.0,0.0,0.0,0.0,0.0,0.0
1710444779.0549116,1818,1710444779,54675579,map,0.0005175285535968494,0.00013359646076362957,-3.5613405800359015e-07,0.9999998571580174,0.0,0.0,0.0,0.0,0.0,0.0,0.0,0.0,0.0,0.0007048310199819088,0.0001702095222786156,-4.4582066295499627e-07,0.0,0.0,0.0,0.0,0.0,0.0,0.0,0.0,0.0,0.0006724053598730302,-0.007301957447145991,-9.81051148815445,0.0,0.0,0.0,0.0,0.0,0.0,0.0,0.0,0.0
1710444779.071765,1819,1710444779,71552753,map,0.0005240664056283256,0.0001342517978576442,-3.882983167053542e-07,0.9999998536653426,0.0,0.0,0.0,0.0,0.0,0.0,0.0,0.0,0.0,0.001307571397915481,0.00013106458852744956,-6.3268523051128015e-06,0.0,0.0,0.0,0.0,0.0,0.0,0.0,0.0,0.0,-0.003778312239029603,-0.009347964589152886,-9.811322670078411,0.0,0.0,0.0,0.0,0.0,0.0,0.0,0.0,0.0
1710444779.0883615,1820,1710444779,88074446,map,0.0005337298380110589,0.0001349510538521853,-4.1965271564891123e-07,0.999999848460237,0.0,0.0,0.0,0.0,0.0,0.0,0.0,0.0,0.0,0.001932687531150908,0.00013984872349789048,-6.0860553759606e-06,0.0,0.0,0.0,0.0,0.0,0.0,0.0,0.0,0.0,0.0009012254478733687,-0.014475440133569113,-9.811385534349212,0.0,0.0,0.0,0.0,0.0,0.0,0.0,0.0,0.0
1710444779.1042004,1821,1710444779,103946209,map,0.0005459450297688,0.00013564425450592282,-4.521662145920179e-07,0.9999998417722156,0.0,0.0,0.0,0.0,0.0,0.0,0.0,0.0,0.0,0.002443039519008437,0.0001386377684731637,-6.24869862711966e-06,0.0,0.0,0.0,0.0,0.0,0.0,0.0,0.0,0.0,-0.00023214708873931653,-0.019594519905418377,-9.810882154521542,0.0,0.0,0.0,0.0,0.0,0.0,0.0,0.0,0.0
1710444779.1211064,1822,1710444779,121030807,map,0.0005608163842786226,0.00013633292277355748,-4.856624463582617e-07,0.9999998334490269,0.0,0.0,0.0,0.0,0.0,0.0,0.0,0.0,0.0,0.002974272191087872,0.00013773145021611627,-6.373046545131319e-06,0.0,0.0,0.0,0.0,0.0,0.0,0.0,0.0,0.0,1.7660990053102483e-05,-0.025304482440786806,-9.811324998384737,0.0,0.0,0.0,0.0,0.0,0.0,0.0,0.0,0.0
1710444779.1375554,1823,1710444779,137445688,map,0.0005785003316602893,0.00013701937888587802,-5.198139675433469e-07,0.9999998232813774,0.0,0.0,0.0,0.0,0.0,0.0,0.0,0.0,0.0,0.0035367908968299937,0.00013728925033153772,-6.427546225324986e-06,0.0,0.0,0.0,0.0,0.0,0.0,0.0,0.0,0.0,3.666032281257804e-05,-0.03160663150026746,-9.811242576340799,0.0,0.0,0.0,0.0,0.0,0.0,0.0,0.0,0.0
1710444779.1539984,1824,1710444779,153888941,map,0.0005989409923066065,0.00013770733356149143,-5.536494375420896e-07,0.9999998111530181,0.0,0.0,0.0,0.0,0.0,0.0,0.0,0.0,0.0,0.004088133670380056,0.0001375893249441575,-6.289349560297124e-06,0.0,0.0,0.0,0.0,0.0,0.0,0.0,0.0,0.0,3.5185147345365173e-05,-0.038930240377255475,-9.810941293502221,0.0,0.0,0.0,0.0,0.0,0.0,0.0,0.0,0.0
1710444779.1708508,1825,1710444779,170728445,map,0.0006210915967674854,0.00013839708615035628,-5.867009564068511e-07,0.9999997975455449,0.0,0.0,0.0,0.0,0.0,0.0,0.0,0.0,0.0,0.004430122524047651,0.0001379492252701501,-6.085923777302381e-06,0.0,0.0,0.0,0.0,0.0,0.0,0.0,0.0,0.0,-2.4109367578523587e-05,-0.04811187635587464,-9.811715688186231,0.0,0.0,0.0,0.0,0.0,0.0,0.0,0.0,0.0
1710444779.1877828,1826,1710444779,187559605,map,0.0006440505522872443,0.00013908744155221705,-6.191198871665659e-07,0.9999997829265697,0.0,0.0,0.0,0.0,0.0,0.0,0.0,0.0,0.0,0.004591792811101693,0.00013806998777086773,-5.937220778894935e-06,0.0,0.0,0.0,0.0,0.0,0.0,0.0,0.0,0.0,7.209904330836667e-06,-0.056872839222590156,-9.811155032022944,0.0,0.0,0.0,0.0,0.0,0.0,0.0,0.0,0.0
1710444779.204018,1827,1710444779,203907251,map,0.0006663873835760954,0.00013978235166753084,-6.499367419767278e-07,0.9999997681941365,0.0,0.0,0.0,0.0,0.0,0.0,0.0,0.0,0.0,0.004467367961199108,0.00013898107320035194,-5.634632753173265e-06,0.0,0.0,0.0,0.0,0.0,0.0,0.0,0.0,0.0,1.6953621256523397e-05,-0.06699271534796247,-9.811582509064388,0.0,0.0,0.0,0.0,0.0,0.0,0.0,0.0,0.0
1710444779.2210915,1828,1710444779,220974922,map,0.0006871559083594351,0.00014048068991706237,-6.788082275807433e-07,0.9999997540407061,0.0,0.0,0.0,0.0,0.0,0.0,0.0,0.0,0.0,0.0041537066005115485,0.00013966675510893034,-5.2896564096239474e-06,0.0,0.0,0.0,0.0,0.0,0.0,0.0,0.0,0.0,0.0019918758389178733,-0.08106454130619149,-9.810710791175952,0.0,0.0,0.0,0.0,0.0,0.0,0.0,0.0,0.0
1710444779.2378404,1829,1710444779,237706900,map,0.0007058494067899964,0.00014118638323051114,-7.053686482327388e-07,0.9999997409212278,0.0,0.0,0.0,0.0,0.0,0.0,0.0,0.0,0.0,0.003738701223675903,0.0001411377928911769,-4.886492120681843e-06,0.0,0.0,0.0,0.0,0.0,0.0,0.0,0.0,0.0,0.002682640215336321,-0.09179622721242943,-9.81057155845766,0.0,0.0,0.0,0.0,0.0,0.0,0.0,0.0,0.0
1710444779.254563,1830,1710444779,254455566,map,0.000721704320711039,0.00014190201808934614,-7.289282784769879e-07,0.9999997295030432,0.0,0.0,0.0,0.0,0.0,0.0,0.0,0.0,0.0,0.003170984142139681,0.00014312609867719837,-4.367522189920583e-06,0.0,0.0,0.0,0.0,0.0,0.0,0.0,0.0,0.0,0.002670455033274408,-0.10038136930023335,-9.810547809733135,0.0,0.0,0.0,0.0,0.0,0.0,0.0,0.0,0.0
1710444779.270955,1831,1710444779,270828962,map,0.0007346347106662034,0.0001426278639191429,-7.494668491160558e-07,0.9999997199842472,0.0,0.0,0.0,0.0,0.0,0.0,0.0,0.0,0.0,0.002586079145398221,0.000145168267613008,-3.8473910163060315e-06,0.0,0.0,0.0,0.0,0.0,0.0,0.0,0.0,0.0,0.0026488041718665508,-0.10734569913800279,-9.809582959591662,0.0,0.0,0.0,0.0,0.0,0.0,0.0,0.0,0.0
1710444779.2880898,1832,1710444779,287891388,map,0.0007450766937257363,0.0001433687881254558,-7.663179612525094e-07,0.9999997121527205,0.0,0.0,0.0,0.0,0.0,0.0,0.0,0.0,0.0,0.0020883975498095938,0.00014818407924259473,-3.1827681741975224e-06,0.0,0.0,0.0,0.0,0.0,0.0,0.0,0.0,0.0,0.0026919837950243513,-0.11355605881330884,-9.810028597422448,0.0,0.0,0.0,0.0,0.0,0.0,0.0,0.0,0.0
1710444779.3049495,1833,1710444779,304842472,map,0.0007532164484354169,0.00014412855728455532,-7.786338790488368e-07,0.999999705945624,0.0,0.0,0.0,0.0,0.0,0.0,0.0,0.0,0.0,0.0016279516367856755,0.0001519533592520706,-2.3442405701827994e-06,0.0,0.0,0.0,0.0,0.0,0.0,0.0,0.0,0.0,0.0026058161110212126,-0.11881998834246127,-9.80868190504352,0.0,0.0,0.0,0.0,0.0,0.0,0.0,0.0,0.0
1710444779.3215601,1834,1710444779,321472406,map,0.0007597208467885445,0.00014484460673386382,-7.678523159738998e-07,0.9999997009217979,0.0,0.0,0.0,0.0,0.0,0.0,0.0,0.0,0.0,0.0013008796210166628,0.00014321264418509037,2.235005552071998e-06,0.0,0.0,0.0,0.0,0.0,0.0,0.0,0.0,0.0,0.002650177849861495,-0.12275685056842689,-9.809410199262276,0.0,0.0,0.0,0.0,0.0,0.0,0.0,0.0,0.0
1710444779.3376079,1835,1710444779,337480783,map,0.0007650591393186627,0.00014543348440097215,-7.078397141792198e-07,0.999999696766511,0.0,0.0,0.0,0.0,0.0,0.0,0.0,0.0,0.0,0.0010676569820459274,0.00011778562135980741,1.206705540653234e-05,0.0,0.0,0.0,0.0,0.0,0.0,0.0,0.0,0.0,0.003053311357274531,-0.12539585300267114,-9.808629750981817,0.0,0.0,0.0,0.0,0.0,0.0,0.0,0.0,0.0
1710444779.3549342,1836,1710444779,354666471,map,0.000769246408902739,0.00014605119231840067,-6.419041132690745e-07,0.9999996934642529,0.0,0.0,0.0,0.0,0.0,0.0,0.0,0.0,0.0,0.0008374521546988295,0.00012355237911653108,1.3213875593462585e-05,0.0,0.0,0.0,0.0,0.0,0.0,0.0,0.0,0.0,0.0037222861743496896,-0.12386067967918267,-9.808769449361375,0.0,0.0,0.0,0.0,0.0,0.0,0.0,0.0,0.0
1710444779.3709998,1837,1710444779,370868921,map,0.0007729940488314441,0.00014666283801356922,-5.626257281255197e-07,0.9999996904849001,0.0,0.0,0.0,0.0,0.0,0.0,0.0,0.0,0.0,0.0007495258103847923,0.0001223419260886902,1.587058149893299e-05,0.0,0.0,0.0,0.0,0.0,0.0,0.0,0.0,0.0,0.0026384197892286147,-0.12755219753554597,-9.813327341825055,0.0,0.0,0.0,0.0,0.0,0.0,0.0,0.0,0.0
1710444779.3884065,1838,1710444779,388138056,map,0.0007768236450700489,0.00014725157897848917,-4.6832658299430487e-07,0.99999968743084,0.0,0.0,0.0,0.0,0.0,0.0,0.0,0.0,0.0,0.0007659166394119848,0.00011776332789006833,1.8880685098985266e-05,0.0,0.0,0.0,0.0,0.0,0.0,0.0,0.0,0.0,0.0027778910224946405,-0.13074832092734112,-9.814398362734991,0.0,0.0,0.0,0.0,0.0,0.0,0.0,0.0,0.0
1710444779.404508,1839,1710444779,404225826,map,0.0007810928252770454,0.0001478580877756906,-3.6386792731485807e-07,0.999999684015876,0.0,0.0,0.0,0.0,0.0,0.0,0.0,0.0,0.0,0.0008538331592434254,0.00012131854048532827,2.092270498750887e-05,0.0,0.0,0.0,0.0,0.0,0.0,0.0,0.0,0.0,0.0029418784800903618,-0.12937132145790392,-9.815340861135736,0.0,0.0,0.0,0.0,0.0,0.0,0.0,0.0,0.0
1710444779.4219122,1840,1710444779,421814919,map,0.0007861927446993391,0.00014843057409074205,-2.3599342070460267e-07,0.9999996799345874,0.0,0.0,0.0,0.0,0.0,0.0,0.0,0.0,0.0,0.0010199803619410758,0.000114517825773622,2.563568879051593e-05,0.0,0.0,0.0,0.0,0.0,0.0,0.0,0.0,0.0,0.00270116230143185,-0.13272527673375875,-9.816935285307746,0.0,0.0,0.0,0.0,0.0,0.0,0.0,0.0,0.0
1710444779.4377549,1841,1710444779,437645674,map,0.000792663522825828,0.00014901990247114717,-9.878294571383174e-08,0.9999996747387464,0.0,0.0,0.0,0.0,0.0,0.0,0.0,0.0,0.0,0.0012941519107840475,0.00011788785100088142,2.7540750269336893e-05,0.0,0.0,0.0,0.0,0.0,0.0,0.0,0.0,0.0,0.002958411273993924,-0.13368347119332102,-9.816078468579796,0.0,0.0,0.0,0.0,0.0,0.0,0.0,0.0,0.0
1710444779.4549956,1842,1710444779,454871416,map,0.0008004196197122312,0.00014958423370750706,6.43744910584684e-08,0.9999996684764377,0.0,0.0,0.0,0.0,0.0,0.0,0.0,0.0,0.0,0.0015512149731365665,0.00011289267041423189,3.277229861711026e-05,0.0,0.0,0.0,0.0,0.0,0.0,0.0,0.0,0.0,0.0027653653483699237,-0.13530893187055548,-9.815840515673285,0.0,0.0,0.0,0.0,0.0,0.0,0.0,0.0,0.0
1710444779.4725015,1843,1710444779,472304106,map,0.0008095987291941491,0.00015016722597976817,2.388337675210089e-07,0.999999660999765,0.0,0.0,0.0,0.0,0.0,0.0,0.0,0.0,0.0,0.0018358172524694128,0.00011662677135535051,3.5072055616608574e-05,0.0,0.0,0.0,0.0,0.0,0.0,0.0,0.0,0.0,0.0029648187775504122,-0.1372581248977728,-9.814266114935677,0.0,0.0,0.0,0.0,0.0,0.0,0.0,0.0,0.0
1710444779.4884655,1844,1710444779,488244534,map,0.0008203536352273942,0.00015072060488875626,4.4623812245975886e-07,0.9999996521514462,0.0,0.0,0.0,0.0,0.0,0.0,0.0,0.0,0.0,0.002150975684500897,0.00011070952778290897,4.171307059192925e-05,0.0,0.0,0.0,0.0,0.0,0.0,0.0,0.0,0.0,0.002731323418046819,-0.14027688819094672,-9.812689385891744,0.0,0.0,0.0,0.0,0.0,0.0,0.0,0.0,0.0
1710444779.5054417,1845,1710444779,505336046,map,0.0008324645457050629,0.00015127098590530906,6.675991238570515e-07,0.9999996420596476,0.0,0.0,0.0,0.0,0.0,0.0,0.0,0.0,0.0,0.0024221762606718607,0.00011011224671439825,4.454562356408243e-05,0.0,0.0,0.0,0.0,0.0,0.0,0.0,0.0,0.0,0.0029931962614530845,-0.14358279804722038,-9.811078663575453,0.0,0.0,0.0,0.0,0.0,0.0,0.0,0.0,0.0
1710444779.5208068,1846,1710444779,520723820,map,0.0008459128844815949,0.00015181845083102918,9.154660327487665e-07,0.9999996306907877,0.0,0.0,0.0,0.0,0.0,0.0,0.0,0.0,0.0,0.002689661232243195,0.00010953343328450185,4.988761218233813e-05,0.0,0.0,0.0,0.0,0.0,0.0,0.0,0.0,0.0,0.002896663180513007,-0.1449153405082518,-9.805981535366682,0.0,0.0,0.0,0.0,0.0,0.0,0.0,0.0,0.0
1710444779.5388763,1847,1710444779,538619995,map,0.0008607134526061418,0.00015235224227446679,1.1962343213936892e-06,0.999999617979785,0.0,0.0,0.0,0.0,0.0,0.0,0.0,0.0,0.0,0.0029601062246950444,0.00010680426283950102,5.65111502174934e-05,0.0,0.0,0.0,0.0,0.0,0.0,0.0,0.0,0.0,0.0028754388721000217,-0.1470345724294625,-9.802931919740953,0.0,0.0,0.0,0.0,0.0,0.0,0.0,0.0,0.0
1710444779.554612,1848,1710444779,554447412,map,0.0008762590776646252,0.00015290193881432903,1.4964312278487781e-06,0.9999996043943151,0.0,0.0,0.0,0.0,0.0,0.0,0.0,0.0,0.0,0.003109117113866308,0.00010998857661628696,6.041670770122401e-05,0.0,0.0,0.0,0.0,0.0,0.0,0.0,0.0,0.0,0.0029797945165984958,-0.15104463988049677,-9.800557047288484,0.0,0.0,0.0,0.0,0.0,0.0,0.0,0.0,0.0
1710444779.5710554,1849,1710444779,570955753,map,0.0008920989997888703,0.00015343430393106194,1.827627342894349e-06,0.9999995903068905,0.0,0.0,0.0,0.0,0.0,0.0,0.0,0.0,0.0,0.0031679756362911838,0.00010652776947617824,6.662860664961054e-05,0.0,0.0,0.0,0.0,0.0,0.0,0.0,0.0,0.0,0.0028156027637650924,-0.1550357821687715,-9.798456449321211,0.0,0.0,0.0,0.0,0.0,0.0,0.0,0.0,0.0
1710444779.5881915,1850,1710444779,588008642,map,0.0009080655810059665,0.0001539485663943931,2.200612000597084e-06,0.9999995758558585,0.0,0.0,0.0,0.0,0.0,0.0,0.0,0.0,0.0,0.003193306217284212,0.00010291480303975966,7.499347272729467e-05,0.0,0.0,0.0,0.0,0.0,0.0,0.0,0.0,0.0,0.002967446193932201,-0.15810419547168886,-9.798521641898338,0.0,0.0,0.0,0.0,0.0,0.0,0.0,0.0,0.0
1710444779.60439,1851,1710444779,604269743,map,0.0009234287200638424,0.00015447570198946615,2.604196752110826e-06,0.9999995617048413,0.0,0.0,0.0,0.0,0.0,0.0,0.0,0.0,0.0,0.0030726168414409497,0.00010549529047162273,8.109259348043265e-05,0.0,0.0,0.0,0.0,0.0,0.0,0.0,0.0,0.0,0.003088458323607804,-0.16254937794294283,-9.79837914955119,0.0,0.0,0.0,0.0,0.0,0.0,0.0,0.0,0.0
1710444779.6211572,1852,1710444779,621061087,map,0.0009377673503868474,0.00015498670498380785,3.0411511794164114e-06,0.9999995482810327,0.0,0.0,0.0,0.0,0.0,0.0,0.0,0.0,0.0,0.002867714008490397,0.00010227545798345211,8.773800670371845e-05,0.0,0.0,0.0,0.0,0.0,0.0,0.0,0.0,0.0,0.0028187613250274884,-0.16542469539750593,-9.79952327927976,0.0,0.0,0.0,0.0,0.0,0.0,0.0,0.0,0.0
1710444779.638591,1853,1710444779,638295174,map,0.0009511336802308785,0.00015548886051189146,3.514800525937285e-06,0.9999995355776836,0.0,0.0,0.0,0.0,0.0,0.0,0.0,0.0,0.0,0.0026732527196662538,0.00010051342924676102,9.504863043121267e-05,0.0,0.0,0.0,0.0,0.0,0.0,0.0,0.0,0.0,0.0030246444266967677,-0.16713235210925637,-9.80141898629035,0.0,0.0,0.0,0.0,0.0,0.0,0.0,0.0,0.0
1710444779.6543121,1854,1710444779,654122353,map,0.0009631477304400584,0.00015599062330085828,4.029563572935789e-06,0.9999995239984555,0.0,0.0,0.0,0.0,0.0,0.0,0.0,0.0,0.0,0.002402795421546134,0.00010044358777627344,0.00010322952450426716,0.0,0.0,0.0,0.0,0.0,0.0,0.0,0.0,0.0,0.0030174442985453323,-0.16989616699660706,-9.803834371272892,0.0,0.0,0.0,0.0,0.0,0.0,0.0,0.0,0.0
1710444779.671322,1855,1710444779,671120882,map,0.0009739100838923315,0.00015648314578054683,4.584054250588012e-06,0.9999995134954617,0.0,0.0,0.0,0.0,0.0,0.0,0.0,0.0,0.0,0.002152454732171883,9.860411059563395e-05,0.00011113792087223056,0.0,0.0,0.0,0.0,0.0,0.0,0.0,0.0,0.0,0.0032999464134842115,-0.17666620990329088,-9.80690820128441,0.0,0.0,0.0,0.0,0.0,0.0,0.0,0.0,0.0
1710444779.6879275,1856,1710444779,687807560,map,0.0009838641084516605,0.0001569714722093936,5.1839808550054426e-06,0.9999995036721265,0.0,0.0,0.0,0.0,0.0,0.0,0.0,0.0,0.0,0.001990787470032394,9.77744711234228e-05,0.00012020070848982689,0.0,0.0,0.0,0.0,0.0,0.0,0.0,0.0,0.0,0.0033922812670803097,-0.17980758967471813,-9.810260496732512,0.0,0.0,0.0,0.0,0.0,0.0,0.0,0.0,0.0
1710444779.7043712,1857,1710444779,704182386,map,0.0009929799443372735,0.00015745873651235113,5.828828380278463e-06,0.9999994945816729,0.0,0.0,0.0,0.0,0.0,0.0,0.0,0.0,0.0,0.001823148258663375,9.757171219756331e-05,0.00012915886589937107,0.0,0.0,0.0,0.0,0.0,0.0,0.0,0.0,0.0,0.0034357992222510997,-0.18094522424718582,-9.812450036001437,0.0,0.0,0.0,0.0,0.0,0.0,0.0,0.0,0.0
1710444779.7208953,1858,1710444779,720798016,map,0.0010024346626851459,0.00015794182012122783,6.52494250418485e-06,0.9999994850681443,0.0,0.0,0.0,0.0,0.0,0.0,0.0,0.0,0.0,0.001890923177103507,9.674551422927424e-05,0.00013942365795465553,0.0,0.0,0.0,0.0,0.0,0.0,0.0,0.0,0.0,0.0034275944435624367,-0.1811693905789159,-9.81503073073312,0.0,0.0,0.0,0.0,0.0,0.0,0.0,0.0,0.0
1710444779.7378755,1859,1710444779,737746716,map,0.001015119263350795,0.00015843223218648,7.280940798136995e-06,0.9999994721894091,0.0,0.0,0.0,0.0,0.0,0.0,0.0,0.0,0.0,0.0025368980937070466,9.82197056011303e-05,0.00015150071645749793,0.0,0.0,0.0,0.0,0.0,0.0,0.0,0.0,0.0,0.0034857094469428465,-0.18256282279784422,-9.817088022202729,0.0,0.0,0.0,0.0,0.0,0.0,0.0,0.0,0.0
1710444779.7542183,1860,1710444779,754118443,map,0.0010323860272293017,0.0001589385436275442,8.11016293453157e-06,0.9999994544257789,0.0,0.0,0.0,0.0,0.0,0.0,0.0,0.0,0.0,0.00345332893746608,0.00010140887708031616,0.00016628694373480382,0.0,0.0,0.0,0.0,0.0,0.0,0.0,0.0,0.0,0.0034990774268082356,-0.18669756286718117,-9.818392805067791,0.0,0.0,0.0,0.0,0.0,0.0,0.0,0.0,0.0
1710444779.7711084,1861,1710444779,770922661,map,0.0010561571424635282,0.00015945170792371966,9.008578529716082e-06,0.9999994295128817,0.0,0.0,0.0,0.0,0.0,0.0,0.0,0.0,0.0,0.0047541977785793355,0.00010278482664147905,0.00018033029072731793,0.0,0.0,0.0,0.0,0.0,0.0,0.0,0.0,0.0,0.003542488516356643,-0.19165653974680832,-9.819509926442983,0.0,0.0,0.0,0.0,0.0,0.0,0.0,0.0,0.0
1710444779.7876987,1862,1710444779,787580013,map,0.0010880492532659403,0.00015998908062530803,1.000829243235967e-05,0.9999993952258925,0.0,0.0,0.0,0.0,0.0,0.0,0.0,0.0,0.0,0.006378394744135539,0.00010763568823668444,0.00020084283593096276,0.0,0.0,0.0,0.0,0.0,0.0,0.0,0.0,0.0,0.003670339591117395,-0.20195110796822094,-9.819840080280002,0.0,0.0,0.0,0.0,0.0,0.0,0.0,0.0,0.0
1710444779.8045201,1863,1710444779,804405689,map,0.0011269935233329616,0.00016053863134461122,1.1103067500328486e-05,0.9999993519946242,0.0,0.0,0.0,0.0,0.0,0.0,0.0,0.0,0.0,0.0077888246609022415,0.00011008031220449293,0.00022007722483816705,0.0,0.0,0.0,0.0,0.0,0.0,0.0,0.0,0.0,0.00362898566479985,-0.2141294315309138,-9.81952762157106,0.0,0.0,0.0,0.0,0.0,0.0,0.0,0.0,0.0
1710444779.8213103,1864,1710444779,821176767,map,0.0011725463845203518,0.00016109995810821093,1.230533508159307e-05,0.9999992995149339,0.0,0.0,0.0,0.0,0.0,0.0,0.0,0.0,0.0,0.009110540674262051,0.00011244781328311712,0.00024178443139628804,0.0,0.0,0.0,0.0,0.0,0.0,0.0,0.0,0.0,0.0038266114644639336,-0.22517589626696827,-9.817032142850906,0.0,0.0,0.0,0.0,0.0,0.0,0.0,0.0,0.0
1710444779.8378327,1865,1710444779,837695122,map,0.0012233332693030625,0.00016161528490471624,1.3625561308663596e-05,0.9999992385749882,0.0,0.0,0.0,0.0,0.0,0.0,0.0,0.0,0.0,0.010157342730273109,0.00010326535278361464,0.00026555547035410083,0.0,0.0,0.0,0.0,0.0,0.0,0.0,0.0,0.0,0.003894895754995527,-0.24382558355360082,-9.816141332850599,0.0,0.0,0.0,0.0,0.0,0.0,0.0,0.0,0.0
1710444779.8541813,1866,1710444779,854083776,map,0.001276418651185321,0.00016215401028638008,1.5083763262090812e-05,0.9999991721166493,0.0,0.0,0.0,0.0,0.0,0.0,0.0,0.0,0.0,0.010617038733724224,0.0001079748179204601,0.0002932186919657236,0.0,0.0,0.0,0.0,0.0,0.0,0.0,0.0,0.0,0.004283182671601997,-0.254859451788634,-9.813237934862139,0.0,0.0,0.0,0.0,0.0,0.0,0.0,0.0,0.0
1710444779.8713095,1867,1710444779,871102810,map,0.001329816952434543,0.000162700753239226,1.6688679378480234e-05,0.9999991024180102,0.0,0.0,0.0,0.0,0.0,0.0,0.0,0.0,0.0,0.010679618630227332,0.00010961660468216322,0.0003225694901047015,0.0,0.0,0.0,0.0,0.0,0.0,0.0,0.0,0.0,0.004061574179912305,-0.27049664265503753,-9.812425821615646,0.0,0.0,0.0,0.0,0.0,0.0,0.0,0.0,0.0
1710444779.887559,1868,1710444779,887450933,map,0.0013824217633015333,0.00016325266182372415,1.8453504614787528e-05,0.999999030958583,0.0,0.0,0.0,0.0,0.0,0.0,0.0,0.0,0.0,0.010520915958657211,0.00011069639080858642,0.0003545241273047707,0.0,0.0,0.0,0.0,0.0,0.0,0.0,0.0,0.0,0.004262377640226614,-0.2948761963128941,-9.811380412075295,0.0,0.0,0.0,0.0,0.0,0.0,0.0,0.0,0.0
1710444779.9042695,1869,1710444779,904092312,map,0.001431551050772999,0.00016381272480544477,2.0373613956368522e-05,0.9999989617054091,0.0,0.0,0.0,0.0,0.0,0.0,0.0,0.0,0.0,0.009825806281855174,0.00011238324531550096,0.00038546547970105447,0.0,0.0,0.0,0.0,0.0,0.0,0.0,0.0,0.0,0.004424432876420194,-0.3149926993044767,-9.809651411797645,0.0,0.0,0.0,0.0,0.0,0.0,0.0,0.0,0.0
1710444779.9212284,1870,1710444779,921047211,map,0.0014761390493121611,0.00016434530955317808,2.249284777540018e-05,0.9999988967484905,0.0,0.0,0.0,0.0,0.0,0.0,0.0,0.0,0.0,0.008917541560807363,0.00010696299822817717,0.00042515015145386595,0.0,0.0,0.0,0.0,0.0,0.0,0.0,0.0,0.0,0.004417151007436319,-0.3290408329268499,-9.80677176253371,0.0,0.0,0.0,0.0,0.0,0.0,0.0,0.0,0.0
1710444779.9378643,1871,1710444779,937731504,map,0.0015162230877193111,0.0001649011246759709,2.4814832076595183e-05,0.999998836629019,0.0,0.0,0.0,0.0,0.0,0.0,0.0,0.0,0.0,0.008016742506930723,0.00011168873237838529,0.0004655455744781797,0.0,0.0,0.0,0.0,0.0,0.0,0.0,0.0,0.0,0.004807320350612374,-0.3437224141175108,-9.806095622376654,0.0,0.0,0.0,0.0,0.0,0.0,0.0,0.0,0.0
1710444779.9543557,1872,1710444779,954249859,map,0.0015507564494818581,0.00016541992081873234,2.7257449851425523e-05,0.999998783523118,0.0,0.0,0.0,0.0,0.0,0.0,0.0,0.0,0.0,0.006906602184254239,0.0001043470860789782,0.0004895012429689113,0.0,0.0,0.0,0.0,0.0,0.0,0.0,0.0,0.0,0.004558458624104839,-0.35607408008617064,-9.80475405227164,0.0,0.0,0.0,0.0,0.0,0.0,0.0,0.0,0.0
1710444779.9709792,1873,1710444779,970892668,map,0.0015821792904197852,0.0001659478369133166,2.9988897493055085e-05,0.9999987341345361,0.0,0.0,0.0,0.0,0.0,0.0,0.0,0.0,0.0,0.0062844880815476215,0.00010627777836278632,0.0005471616526966957,0.0,0.0,0.0,0.0,0.0,0.0,0.0,0.0,0.0,0.005065163677933826,-0.3645038204596426,-9.803773369647152,0.0,0.0,0.0,0.0,0.0,0.0,0.0,0.0,0.0
1710444779.9884264,1874,1710444779,988261700,map,0.0016115830281260702,0.00016667197142484211,3.291760921845177e-05,0.9999986869676523,0.0,0.0,0.0,0.0,0.0,0.0,0.0,0.0,0.0,0.005880661736764667,0.0001455959213391849,0.0005864843609659848,0.0,0.0,0.0,0.0,0.0,0.0,0.0,0.0,0.0,0.004811143979843852,-0.37567689867560117,-9.803017601413748,0.0,0.0,0.0,0.0,0.0,0.0,0.0,0.0,0.0
1710444780.0046368,1875,1710444780,4433393,map,0.0016304293199019854,0.0001671221543246827,3.618122304971602e-05,0.9999986562297659,0.0,0.0,0.0,0.0,0.0,0.0,0.0,0.0,0.0,0.0037691571896638393,9.097763848504552e-05,0.0006532035254390955,0.0,0.0,0.0,0.0,0.0,0.0,0.0,0.0,0.0,0.004202966038523575,-0.3498040748416606,-9.803602471962826,0.0,0.0,0.0,0.0,0.0,0.0,0.0,0.0,0.0
1710444780.0214295,1876,1710444780,21246910,map,0.0016418548529961512,0.00016780185206294006,3.9790936692485115e-05,0.9999986372850023,0.0,0.0,0.0,0.0,0.0,0.0,0.0,0.0,0.0,0.002284993496901778,0.00013704264682307333,0.0007221005819754728,0.0,0.0,0.0,0.0,0.0,0.0,0.0,0.0,0.0,0.0069494182180947816,-0.23474695239253848,-9.801748674466104,0.0,0.0,0.0,0.0,0.0,0.0,0.0,0.0,0.0
1710444780.0380368,1877,1710444780,37887812,map,0.0016369075820282031,0.0001687701133283458,4.364601739033992e-05,0.9999986450717031,0.0,0.0,0.0,0.0,0.0,0.0,0.0,0.0,0.0,-0.0009895778256039146,0.00019495318326033018,0.0007705320104083898,0.0,0.0,0.0,0.0,0.0,0.0,0.0,0.0,0.0,0.0032628074264749968,-0.22717934201481152,-9.803104680070339,0.0,0.0,0.0,0.0,0.0,0.0,0.0,0.0,0.0
1710444780.055191,1878,1710444780,54653406,map,0.0015955382413269635,0.0001691707869789757,4.751831540035944e-05,0.9999987116896577,0.0,0.0,0.0,0.0,0.0,0.0,0.0,0.0,0.0,-0.00827400626558888,8.172923688756206e-05,0.0007729337981384807,0.0,0.0,0.0,0.0,0.0,0.0,0.0,0.0,0.0,0.004747593609010138,-0.24955795285412521,-9.801536798590444,0.0,0.0,0.0,0.0,0.0,0.0,0.0,0.0,0.0
1710444780.0712373,1879,1710444780,71104050,map,0.001523044076337837,0.0001694487711489755,5.1814033521459326e-05,0.9999988244688899,0.0,0.0,0.0,0.0,0.0,0.0,0.0,0.0,0.0,-0.014498993267174807,5.759060387409549e-05,0.0008566041369797633,0.0,0.0,0.0,0.0,0.0,0.0,0.0,0.0,0.0,0.007239254611647236,-0.2665443226578548,-9.798315819619123,0.0,0.0,0.0,0.0,0.0,0.0,0.0,0.0,0.0
1710444780.0879078,1880,1710444780,87774277,map,0.001431390774914275,0.0001695841212205495,5.64664821614261e-05,0.9999989595860647,0.0,0.0,0.0,0.0,0.0,0.0,0.0,0.0,0.0,-0.018330836324005086,2.9347371017523957e-05,0.0009273425910036918,0.0,0.0,0.0,0.0,0.0,0.0,0.0,0.0,0.0,0.0057115679071276446,-0.24635469811471217,-9.799826890424665,0.0,0.0,0.0,0.0,0.0,0.0,0.0,0.0,0.0
1710444780.104823,1881,1710444780,104591846,map,0.001332812076813205,0.00016969130336218577,6.13948535107397e-05,0.9999990955233417,0.0,0.0,0.0,0.0,0.0,0.0,0.0,0.0,0.0,-0.01971592411717683,2.3859124344648967e-05,0.0009822999056903908,0.0,0.0,0.0,0.0,0.0,0.0,0.0,0.0,0.0,0.006154319570302337,-0.20947900071420797,-9.803107008376664,0.0,0.0,0.0,0.0,0.0,0.0,0.0,0.0,0.0
1710444780.1215293,1882,1710444780,121446371,map,0.0012432151843522062,0.00016982623814081627,6.672583520042192e-05,0.999999210561047,0.0,0.0,0.0,0.0,0.0,0.0,0.0,0.0,0.0,-0.017919572397210166,2.940897096166849e-05,0.0010631198690630218,0.0,0.0,0.0,0.0,0.0,0.0,0.0,0.0,0.0,0.0057723844507045164,-0.17520243895908408,-9.806295856720686,0.0,0.0,0.0,0.0,0.0,0.0,0.0,0.0,0.0
1710444780.1378303,1883,1710444780,137710810,map,0.0011761823284725127,0.0001700138886869643,7.244662448212739e-05,0.9999992912206961,0.0,0.0,0.0,0.0,0.0,0.0,0.0,0.0,0.0,-0.013406772688826733,3.976779752802591e-05,0.0011418350994917557,0.0,0.0,0.0,0.0,0.0,0.0,0.0,0.0,0.0,0.005765918284742551,-0.11701570646343656,-9.809943847072184,0.0,0.0,0.0,0.0,0.0,0.0,0.0,0.0,0.0
1710444780.1548195,1884,1710444780,154618740,map,0.0011351631372643878,0.00017092515664213873,7.886310939694309e-05,0.9999993379847072,0.0,0.0,0.0,0.0,0.0,0.0,0.0,0.0,0.0,-0.008204049585740813,0.00018430302813330935,0.0012816938271587046,0.0,0.0,0.0,0.0,0.0,0.0,0.0,0.0,0.0,0.006034353814231423,-0.06193442528959765,-9.813919662954376,0.0,0.0,0.0,0.0,0.0,0.0,0.0,0.0,0.0
1710444780.171194,1885,1710444780,170976877,map,0.0011273176171995457,0.00017099968279116532,8.543203674204078e-05,0.9999993463075192,0.0,0.0,0.0,0.0,0.0,0.0,0.0,0.0,0.0,-0.0015693283557393297,1.6509734119354052e-05,0.0013134994783801201,0.0,0.0,0.0,0.0,0.0,0.0,0.0,0.0,0.0,0.003884472718834601,-0.016893695935999514,-9.815689641423363,0.0,0.0,0.0,0.0,0.0,0.0,0.0,0.0,0.0
1710444780.1879969,1886,1710444780,187799215,map,0.00115722434709921,0.00017170875392956853,9.258010581691908e-05,0.9999993113881821,0.0,0.0,0.0,0.0,0.0,0.0,0.0,0.0,0.0,0.005981116573531742,0.0001429587386574943,0.0014304721410696981,0.0,0.0,0.0,0.0,0.0,0.0,0.0,0.0,0.0,0.012166797536884738,0.014809454320667152,-9.819346013677636,0.0,0.0,0.0,0.0,0.0,0.0,0.0,0.0,0.0
1710444780.2045066,1887,1710444780,204264879,map,0.001216527237817058,0.00017252929088037655,0.000100304167789046,0.99999924011681,0.0,0.0,0.0,0.0,0.0,0.0,0.0,0.0,0.0,0.011860335139063607,0.00016489108487768392,0.0015466495307558806,0.0,0.0,0.0,0.0,0.0,0.0,0.0,0.0,0.0,0.004294534870243488,0.02350138563330223,-9.822519495199906,0.0,0.0,0.0,0.0,0.0,0.0,0.0,0.0,0.0
1710444780.2213013,1888,1710444780,221189022,map,0.0013017953556330026,0.00017262075584238907,0.00010819423385422951,0.9999991319120904,0.0,0.0,0.0,0.0,0.0,0.0,0.0,0.0,0.0,0.017053366386436446,1.8640659916862557e-05,0.0015809325965981248,0.0,0.0,0.0,0.0,0.0,0.0,0.0,0.0,0.0,0.006094658426002351,0.02173441941062418,-9.821920654812871,0.0,0.0,0.0,0.0,0.0,0.0,0.0,0.0,0.0
1710444780.2378504,1889,1710444780,237731695,map,0.0014064275599013085,0.0001739487887250723,0.00011683440966641745,0.9999989890260182,0.0,0.0,0.0,0.0,0.0,0.0,0.0,0.0,0.0,0.020926188070031198,0.00026577785335151686,0.0017312755277836369,0.0,0.0,0.0,0.0,0.0,0.0,0.0,0.0,0.0,0.012233802964239543,0.043590827520813606,-9.823590050448578,0.0,0.0,0.0,0.0,0.0,0.0,0.0,0.0,0.0
