Time,header.seq,header.stamp.secs,header.stamp.nsecs,header.frame_id,orientation.x,orientation.y,orientation.z,orientation.w,orientation_covariance_0,orientation_covariance_1,orientation_covariance_2,orientation_covariance_3,orientation_covariance_4,orientation_covariance_5,orientation_covariance_6,orientation_covariance_7,orientation_covariance_8,angular_velocity.x,angular_velocity.y,angular_velocity.z,angular_velocity_covariance_0,angular_velocity_covariance_1,angular_velocity_covariance_2,angular_velocity_covariance_3,angular_velocity_covariance_4,angular_velocity_covariance_5,angular_velocity_covariance_6,angular_velocity_covariance_7,angular_velocity_covariance_8,linear_acceleration.x,linear_acceleration.y,linear_acceleration.z,linear_acceleration_covariance_0,linear_acceleration_covariance_1,linear_acceleration_covariance_2,linear_acceleration_covariance_3,linear_acceleration_covariance_4,linear_acceleration_covariance_5,linear_acceleration_covariance_6,linear_acceleration_covariance_7,linear_acceleration_covariance_8
1710444585.0902135,322,1710444585,90006828,map,0.0004075169710634179,6.0863110247311765e-06,1.623612911200034e-08,0.9999999169464341,0.0,0.0,0.0,0.0,0.0,0.0,0.0,0.0,0.0,-0.0,0.0,-0.0,0.0,0.0,0.0,0.0,0.0,0.0,0.0,0.0,0.0,1.885639377229035e-05,-0.006789278263965327,-9.810475632237031,0.0,0.0,0.0,0.0,0.0,0.0,0.0,0.0,0.0
1710444585.10747,323,1710444585,107351780,map,0.0004075169710634179,6.0863110247311765e-06,1.623612911200034e-08,0.9999999169464341,0.0,0.0,0.0,0.0,0.0,0.0,0.0,0.0,0.0,-0.0,0.0,-0.0,0.0,0.0,0.0,0.0,0.0,0.0,0.0,0.0,0.0,2.003822079679954e-05,-0.006788894229845744,-9.810476097898295,0.0,0.0,0.0,0.0,0.0,0.0,0.0,0.0,0.0
1710444585.1231992,324,1710444585,123087645,map,0.0004075169710634179,6.0863110247311765e-06,1.623612911200034e-08,0.9999999169464341,0.0,0.0,0.0,0.0,0.0,0.0,0.0,0.0,0.0,-0.0,0.0,-0.0,0.0,0.0,0.0,0.0,0.0,0.0,0.0,0.0,0.0,1.8024265667646206e-05,-0.006780914096337748,-9.810476097898295,0.0,0.0,0.0,0.0,0.0,0.0,0.0,0.0,0.0
1710444585.1406898,325,1710444585,140563250,map,0.0004075169710634179,6.0863110247311765e-06,1.623612911200034e-08,0.9999999169464341,0.0,0.0,0.0,0.0,0.0,0.0,0.0,0.0,0.0,-0.0,0.0,-0.0,0.0,0.0,0.0,0.0,0.0,0.0,0.0,0.0,0.0,1.8986044722769566e-05,-0.0067947629715038585,-9.810002054730333,0.0,0.0,0.0,0.0,0.0,0.0,0.0,0.0,0.0
1710444585.156586,326,1710444585,156462431,map,0.0004075169710634179,6.0863110247311765e-06,1.623612911200034e-08,0.9999999169464341,0.0,0.0,0.0,0.0,0.0,0.0,0.0,0.0,0.0,-0.0,0.0,-0.0,0.0,0.0,0.0,0.0,0.0,0.0,0.0,0.0,0.0,1.804124763822427e-05,-0.006780297913706565,-9.810945484453608,0.0,0.0,0.0,0.0,0.0,0.0,0.0,0.0,0.0
1710444585.1734822,327,1710444585,173340321,map,0.0004075169710634179,6.0863110247311765e-06,1.623612911200034e-08,0.9999999169464341,0.0,0.0,0.0,0.0,0.0,0.0,0.0,0.0,0.0,-0.0,0.0,-0.0,0.0,0.0,0.0,0.0,0.0,0.0,0.0,0.0,0.0,2.0202015988645525e-05,-0.006779165138109311,-9.810489602074986,0.0,0.0,0.0,0.0,0.0,0.0,0.0,0.0,0.0
1710444585.1897662,328,1710444585,189668894,map,0.0004075169710634179,6.0863110247311765e-06,1.623612911200034e-08,0.9999999169464341,0.0,0.0,0.0,0.0,0.0,0.0,0.0,0.0,0.0,-0.0,0.0,-0.0,0.0,0.0,0.0,0.0,0.0,0.0,0.0,0.0,0.0,1.8568186106035726e-05,-0.006793560164817894,-9.810475632237031,0.0,0.0,0.0,0.0,0.0,0.0,0.0,0.0,0.0
1710444585.206588,329,1710444585,206471920,map,0.0004075169710634179,6.0863110247311765e-06,1.623612911200034e-08,0.9999999169464341,0.0,0.0,0.0,0.0,0.0,0.0,0.0,0.0,0.0,-0.0,0.0,-0.0,0.0,0.0,0.0,0.0,0.0,0.0,0.0,0.0,0.0,1.842834330867454e-05,-0.006785867658995673,-9.810476097898295,0.0,0.0,0.0,0.0,0.0,0.0,0.0,0.0,0.0
1710444585.2236311,330,1710444585,223365784,map,0.0004075169710634179,6.0863110247311765e-06,1.623612911200034e-08,0.9999999169464341,0.0,0.0,0.0,0.0,0.0,0.0,0.0,0.0,0.0,-0.0,0.0,-0.0,0.0,0.0,0.0,0.0,0.0,0.0,0.0,0.0,0.0,1.856600918083244e-05,-0.006785113233176386,-9.810476097898295,0.0,0.0,0.0,0.0,0.0,0.0,0.0,0.0,0.0
1710444585.240155,331,1710444585,240050554,map,0.0004075169710634179,6.0863110247311765e-06,1.623612911200034e-08,0.9999999169464341,0.0,0.0,0.0,0.0,0.0,0.0,0.0,0.0,0.0,-0.0,0.0,-0.0,0.0,0.0,0.0,0.0,0.0,0.0,0.0,0.0,0.0,1.799410312994583e-05,-0.006791970368154707,-9.810476097898295,0.0,0.0,0.0,0.0,0.0,0.0,0.0,0.0,0.0
1710444585.2565532,332,1710444585,256412983,map,0.0004075169710634179,6.0863110247311765e-06,1.623612911200034e-08,0.9999999169464341,0.0,0.0,0.0,0.0,0.0,0.0,0.0,0.0,0.0,-0.0,0.0,-0.0,0.0,0.0,0.0,0.0,0.0,0.0,0.0,0.0,0.0,2.0119609910601405e-05,-0.006791478786291747,-9.810476097898295,0.0,0.0,0.0,0.0,0.0,0.0,0.0,0.0,0.0
1710444585.2737963,333,1710444585,273660421,map,0.0004075169710634179,6.0863110247311765e-06,1.623612911200034e-08,0.9999999169464341,0.0,0.0,0.0,0.0,0.0,0.0,0.0,0.0,0.0,-0.0,0.0,-0.0,0.0,0.0,0.0,0.0,0.0,0.0,0.0,0.0,0.0,1.851311727027311e-05,-0.006790457878537498,-9.810002054730333,0.0,0.0,0.0,0.0,0.0,0.0,0.0,0.0,0.0
1710444585.2905166,334,1710444585,290369272,map,0.0004075169710634179,6.0863110247311765e-06,1.623612911200034e-08,0.9999999169464341,0.0,0.0,0.0,0.0,0.0,0.0,0.0,0.0,0.0,-0.0,0.0,-0.0,0.0,0.0,0.0,0.0,0.0,0.0,0.0,0.0,0.0,1.799998731169686e-05,-0.006790415587035874,-9.810945484453608,0.0,0.0,0.0,0.0,0.0,0.0,0.0,0.0,0.0
1710444585.3062196,335,1710444585,306109667,map,0.0004075169710634179,6.0863110247311765e-06,1.623612911200034e-08,0.9999999169464341,0.0,0.0,0.0,0.0,0.0,0.0,0.0,0.0,0.0,-0.0,0.0,-0.0,0.0,0.0,0.0,0.0,0.0,0.0,0.0,0.0,0.0,1.8853881115660364e-05,-0.0067894205998793936,-9.810489602074986,0.0,0.0,0.0,0.0,0.0,0.0,0.0,0.0,0.0
1710444585.3227868,336,1710444585,322697163,map,0.0004075169710634179,6.0863110247311765e-06,1.623612911200034e-08,0.9999999169464341,0.0,0.0,0.0,0.0,0.0,0.0,0.0,0.0,0.0,-0.0,0.0,-0.0,0.0,0.0,0.0,0.0,0.0,0.0,0.0,0.0,0.0,1.7932195320676357e-05,-0.0067887364325224814,-9.810476097898295,0.0,0.0,0.0,0.0,0.0,0.0,0.0,0.0,0.0
1710444585.339513,337,1710444585,339295864,map,0.0004075169710634179,6.0863110247311765e-06,1.623612911200034e-08,0.9999999169464341,0.0,0.0,0.0,0.0,0.0,0.0,0.0,0.0,0.0,-0.0,0.0,-0.0,0.0,0.0,0.0,0.0,0.0,0.0,0.0,0.0,0.0,1.8820097474714867e-05,-0.006788074775158369,-9.810476097898295,0.0,0.0,0.0,0.0,0.0,0.0,0.0,0.0,0.0
1710444585.3561542,338,1710444585,356058359,map,0.0004075169710634179,6.0863110247311765e-06,1.623612911200034e-08,0.9999999169464341,0.0,0.0,0.0,0.0,0.0,0.0,0.0,0.0,0.0,-0.0,0.0,-0.0,0.0,0.0,0.0,0.0,0.0,0.0,0.0,0.0,0.0,1.9851348954348988e-05,-0.0067874188021358715,-9.810476097898295,0.0,0.0,0.0,0.0,0.0,0.0,0.0,0.0,0.0
1710444585.3732448,339,1710444585,373044491,map,0.0004075169710634179,6.0863110247311765e-06,1.623612911200034e-08,0.9999999169464341,0.0,0.0,0.0,0.0,0.0,0.0,0.0,0.0,0.0,-0.0,0.0,-0.0,0.0,0.0,0.0,0.0,0.0,0.0,0.0,0.0,0.0,1.790412444305503e-05,-0.006786776471533254,-9.810476097898295,0.0,0.0,0.0,0.0,0.0,0.0,0.0,0.0,0.0
1710444585.3899534,340,1710444585,389830828,map,0.0004075169710634179,6.0863110247311765e-06,1.623612911200034e-08,0.9999999169464341,0.0,0.0,0.0,0.0,0.0,0.0,0.0,0.0,0.0,-0.0,0.0,-0.0,0.0,0.0,0.0,0.0,0.0,0.0,0.0,0.0,0.0,1.8360286640497535e-05,-0.0067861395978985875,-9.810476097898295,0.0,0.0,0.0,0.0,0.0,0.0,0.0,0.0,0.0
1710444585.405718,341,1710444585,405603647,map,0.0004075169710634179,6.0863110247311765e-06,1.623612911200034e-08,0.9999999169464341,0.0,0.0,0.0,0.0,0.0,0.0,0.0,0.0,0.0,-0.0,0.0,-0.0,0.0,0.0,0.0,0.0,0.0,0.0,0.0,0.0,0.0,1.8445825323679144e-05,-0.0067851889486067124,-9.810002054730333,0.0,0.0,0.0,0.0,0.0,0.0,0.0,0.0,0.0
1710444585.4223216,342,1710444585,422196627,map,0.0004075169710634179,6.0863110247311765e-06,1.623612911200034e-08,0.9999999169464341,0.0,0.0,0.0,0.0,0.0,0.0,0.0,0.0,0.0,-0.0,0.0,-0.0,0.0,0.0,0.0,0.0,0.0,0.0,0.0,0.0,0.0,1.7934897159300753e-05,-0.0067852203261724335,-9.810945484453608,0.0,0.0,0.0,0.0,0.0,0.0,0.0,0.0,0.0
1710444585.4405074,343,1710444585,440394640,map,0.0004075169710634179,6.0863110247311765e-06,1.623612911200034e-08,0.9999999169464341,0.0,0.0,0.0,0.0,0.0,0.0,0.0,0.0,0.0,-0.0,0.0,-0.0,0.0,0.0,0.0,0.0,0.0,0.0,0.0,0.0,0.0,1.8678434799858152e-05,-0.006776888445605234,-9.810489602074986,0.0,0.0,0.0,0.0,0.0,0.0,0.0,0.0,0.0
1710444585.4554625,344,1710444585,455366850,map,0.0004075169710634179,6.0863110247311765e-06,1.623612911200034e-08,0.9999999169464341,0.0,0.0,0.0,0.0,0.0,0.0,0.0,0.0,0.0,-0.0,0.0,-0.0,0.0,0.0,0.0,0.0,0.0,0.0,0.0,0.0,0.0,1.9869478451390803e-05,-0.00679103381603004,-9.810476097898295,0.0,0.0,0.0,0.0,0.0,0.0,0.0,0.0,0.0
1710444585.473659,345,1710444585,473532200,map,0.0004075169710634179,6.0863110247311765e-06,1.623612911200034e-08,0.9999999169464341,0.0,0.0,0.0,0.0,0.0,0.0,0.0,0.0,0.0,-0.0,0.0,-0.0,0.0,0.0,0.0,0.0,0.0,0.0,0.0,0.0,0.0,1.78662143253676e-05,-0.006775897778548382,-9.810476097898295,0.0,0.0,0.0,0.0,0.0,0.0,0.0,0.0,0.0
1710444585.4895575,346,1710444585,489419937,map,0.0004075169710634179,6.0863110247311765e-06,1.623612911200034e-08,0.9999999169464341,0.0,0.0,0.0,0.0,0.0,0.0,0.0,0.0,0.0,-0.0,0.0,-0.0,0.0,0.0,0.0,0.0,0.0,0.0,0.0,0.0,0.0,1.828090125711534e-05,-0.006782454325542044,-9.810476097898295,0.0,0.0,0.0,0.0,0.0,0.0,0.0,0.0,0.0
1710444585.5065882,347,1710444585,506455898,map,0.0004075169710634179,6.0863110247311765e-06,1.623612911200034e-08,0.9999999169464341,0.0,0.0,0.0,0.0,0.0,0.0,0.0,0.0,0.0,-0.0,0.0,-0.0,0.0,0.0,0.0,0.0,0.0,0.0,0.0,0.0,0.0,1.8465749829221914e-05,-0.006774682011563534,-9.810476097898295,0.0,0.0,0.0,0.0,0.0,0.0,0.0,0.0,0.0
1710444585.523302,348,1710444585,523053646,map,0.0004075169710634179,6.0863110247311765e-06,1.623612911200034e-08,0.9999999169464341,0.0,0.0,0.0,0.0,0.0,0.0,0.0,0.0,0.0,-0.0,0.0,-0.0,0.0,0.0,0.0,0.0,0.0,0.0,0.0,0.0,0.0,1.7876832497870783e-05,-0.00678147184393712,-9.810476097898295,0.0,0.0,0.0,0.0,0.0,0.0,0.0,0.0,0.0
1710444585.5401154,349,1710444585,539965153,map,0.0004075169710634179,6.0863110247311765e-06,1.623612911200034e-08,0.9999999169464341,0.0,0.0,0.0,0.0,0.0,0.0,0.0,0.0,0.0,-0.0,0.0,-0.0,0.0,0.0,0.0,0.0,0.0,0.0,0.0,0.0,0.0,1.793173702063356e-05,-0.0067807967715267925,-9.810002054730333,0.0,0.0,0.0,0.0,0.0,0.0,0.0,0.0,0.0
1710444585.5569751,350,1710444585,556768894,map,0.0004075169710634179,6.0863110247311765e-06,1.623612911200034e-08,0.9999999169464341,0.0,0.0,0.0,0.0,0.0,0.0,0.0,0.0,0.0,-0.0,0.0,-0.0,0.0,0.0,0.0,0.0,0.0,0.0,0.0,0.0,0.0,2.0005351091404504e-05,-0.006780893860081596,-9.810945950114872,0.0,0.0,0.0,0.0,0.0,0.0,0.0,0.0,0.0
1710444585.5731435,351,1710444585,573044538,map,0.0004075169710634179,6.0863110247311765e-06,1.623612911200034e-08,0.9999999169464341,0.0,0.0,0.0,0.0,0.0,0.0,0.0,0.0,0.0,-0.0,0.0,-0.0,0.0,0.0,0.0,0.0,0.0,0.0,0.0,0.0,0.0,1.844144305156449e-05,-0.006772626553635155,-9.810489602074986,0.0,0.0,0.0,0.0,0.0,0.0,0.0,0.0,0.0
1710444585.5895312,352,1710444585,589447975,map,0.0004075169710634179,6.0863110247311765e-06,1.623612911200034e-08,0.9999999169464341,0.0,0.0,0.0,0.0,0.0,0.0,0.0,0.0,0.0,-0.0,0.0,-0.0,0.0,0.0,0.0,0.0,0.0,0.0,0.0,0.0,0.0,1.7916053566843418e-05,-0.006779427982065638,-9.810476097898295,0.0,0.0,0.0,0.0,0.0,0.0,0.0,0.0,0.0
1710444585.606522,353,1710444585,606393814,map,0.0004075169710634179,6.0863110247311765e-06,1.623612911200034e-08,0.9999999169464341,0.0,0.0,0.0,0.0,0.0,0.0,0.0,0.0,0.0,-0.0,0.0,-0.0,0.0,0.0,0.0,0.0,0.0,0.0,0.0,0.0,0.0,1.821410491405603e-05,-0.006771699778578068,-9.810476097898295,0.0,0.0,0.0,0.0,0.0,0.0,0.0,0.0,0.0
1710444585.6228952,354,1710444585,622761965,map,0.0004075169710634179,6.0863110247311765e-06,1.623612911200034e-08,0.9999999169464341,0.0,0.0,0.0,0.0,0.0,0.0,0.0,0.0,0.0,-0.0,0.0,-0.0,0.0,0.0,0.0,0.0,0.0,0.0,0.0,0.0,0.0,1.8454701778384018e-05,-0.006778528037100979,-9.810476097898295,0.0,0.0,0.0,0.0,0.0,0.0,0.0,0.0,0.0
1710444585.6394699,355,1710444585,639366388,map,0.0004075169710634179,6.0863110247311765e-06,1.623612911200034e-08,0.9999999169464341,0.0,0.0,0.0,0.0,0.0,0.0,0.0,0.0,0.0,-0.0,0.0,-0.0,0.0,0.0,0.0,0.0,0.0,0.0,0.0,0.0,0.0,1.7879808783613832e-05,-0.006778217899422405,-9.810476097898295,0.0,0.0,0.0,0.0,0.0,0.0,0.0,0.0,0.0
1710444585.6560414,356,1710444585,655924559,map,0.0004075169710634179,6.0863110247311765e-06,1.623612911200034e-08,0.9999999169464341,0.0,0.0,0.0,0.0,0.0,0.0,0.0,0.0,0.0,-0.0,0.0,-0.0,0.0,0.0,0.0,0.0,0.0,0.0,0.0,0.0,0.0,1.7885227559895043e-05,-0.006762901781998351,-9.810476097898295,0.0,0.0,0.0,0.0,0.0,0.0,0.0,0.0,0.0
1710444585.6724937,357,1710444585,672395945,map,0.0004075169710634179,6.0863110247311765e-06,1.623612911200034e-08,0.9999999169464341,0.0,0.0,0.0,0.0,0.0,0.0,0.0,0.0,0.0,-0.0,0.0,-0.0,0.0,0.0,0.0,0.0,0.0,0.0,0.0,0.0,0.0,1.9993775462610364e-05,-0.006776772712409931,-9.810002054730333,0.0,0.0,0.0,0.0,0.0,0.0,0.0,0.0,0.0
1710444585.6893435,358,1710444585,689238071,map,0.0004075169710634179,6.0863110247311765e-06,1.623612911200034e-08,0.9999999169464341,0.0,0.0,0.0,0.0,0.0,0.0,0.0,0.0,0.0,-0.0,0.0,-0.0,0.0,0.0,0.0,0.0,0.0,0.0,0.0,0.0,0.0,1.8410988303177918e-05,-0.0067773479677814795,-9.810945484453608,0.0,0.0,0.0,0.0,0.0,0.0,0.0,0.0,0.0
1710444585.7056806,359,1710444585,705573320,map,0.0004075169710634179,6.0863110247311765e-06,1.623612911200034e-08,0.9999999169464341,0.0,0.0,0.0,0.0,0.0,0.0,0.0,0.0,0.0,-0.0,0.0,-0.0,0.0,0.0,0.0,0.0,0.0,0.0,0.0,0.0,0.0,1.7919834542196496e-05,-0.006769141142729834,-9.810489602074986,0.0,0.0,0.0,0.0,0.0,0.0,0.0,0.0,0.0
1710444585.722648,360,1710444585,722487450,map,0.0004075169710634179,6.0863110247311765e-06,1.623612911200034e-08,0.9999999169464341,0.0,0.0,0.0,0.0,0.0,0.0,0.0,0.0,0.0,-0.0,0.0,-0.0,0.0,0.0,0.0,0.0,0.0,0.0,0.0,0.0,0.0,1.7842807272406603e-05,-0.006768591353208726,-9.810476097898295,0.0,0.0,0.0,0.0,0.0,0.0,0.0,0.0,0.0
1710444585.7396176,361,1710444585,739470959,map,0.0004075169710634179,6.0863110247311765e-06,1.623612911200034e-08,0.9999999169464341,0.0,0.0,0.0,0.0,0.0,0.0,0.0,0.0,0.0,-0.0,0.0,-0.0,0.0,0.0,0.0,0.0,0.0,0.0,0.0,0.0,0.0,1.8761322270582882e-05,-0.00677566949538908,-9.810476097898295,0.0,0.0,0.0,0.0,0.0,0.0,0.0,0.0,0.0
1710444585.756131,362,1710444585,756000280,map,0.0004075169710634179,6.0863110247311765e-06,1.623612911200034e-08,0.9999999169464341,0.0,0.0,0.0,0.0,0.0,0.0,0.0,0.0,0.0,-0.0,0.0,-0.0,0.0,0.0,0.0,0.0,0.0,0.0,0.0,0.0,0.0,1.788704654921219e-05,-0.006760603034248804,-9.810476097898295,0.0,0.0,0.0,0.0,0.0,0.0,0.0,0.0,0.0
1710444585.7731607,363,1710444585,773028612,map,0.0004075169710634179,6.0863110247311765e-06,1.623612911200034e-08,0.9999999169464341,0.0,0.0,0.0,0.0,0.0,0.0,0.0,0.0,0.0,-0.0,0.0,-0.0,0.0,0.0,0.0,0.0,0.0,0.0,0.0,0.0,0.0,1.7894796793734377e-05,-0.006774836625655491,-9.810476097898295,0.0,0.0,0.0,0.0,0.0,0.0,0.0,0.0,0.0
1710444585.7897797,364,1710444585,789705515,map,0.0004075169710634179,6.0863110247311765e-06,1.623612911200034e-08,0.9999999169464341,0.0,0.0,0.0,0.0,0.0,0.0,0.0,0.0,0.0,-0.0,0.0,-0.0,0.0,0.0,0.0,0.0,0.0,0.0,0.0,0.0,0.0,1.7881365760309613e-05,-0.006767383999049469,-9.810476097898295,0.0,0.0,0.0,0.0,0.0,0.0,0.0,0.0,0.0
1710444585.8056753,365,1710444585,805581570,map,0.0004075169710634179,6.0863110247311765e-06,1.623612911200034e-08,0.9999999169464341,0.0,0.0,0.0,0.0,0.0,0.0,0.0,0.0,0.0,-0.0,0.0,-0.0,0.0,0.0,0.0,0.0,0.0,0.0,0.0,0.0,0.0,1.9976978233134823e-05,-0.006766548628205568,-9.810002054730333,0.0,0.0,0.0,0.0,0.0,0.0,0.0,0.0,0.0
1710444585.823162,366,1710444585,822874546,map,0.0004075169710634179,6.0863110247311765e-06,1.623612911200034e-08,0.9999999169464341,0.0,0.0,0.0,0.0,0.0,0.0,0.0,0.0,0.0,-0.0,0.0,-0.0,0.0,0.0,0.0,0.0,0.0,0.0,0.0,0.0,0.0,1.8398182547330922e-05,-0.006774305935522213,-9.810945484453608,0.0,0.0,0.0,0.0,0.0,0.0,0.0,0.0,0.0
1710444585.839066,367,1710444585,838938951,map,0.0004075169710634179,6.0863110247311765e-06,1.623612911200034e-08,0.9999999169464341,0.0,0.0,0.0,0.0,0.0,0.0,0.0,0.0,0.0,-0.0,0.0,-0.0,0.0,0.0,0.0,0.0,0.0,0.0,0.0,0.0,0.0,1.7937153132379638e-05,-0.006758944798112558,-9.810489602074986,0.0,0.0,0.0,0.0,0.0,0.0,0.0,0.0,0.0
1710444585.8558943,368,1710444585,855792046,map,0.0004075169710634179,6.0863110247311765e-06,1.623612911200034e-08,0.9999999169464341,0.0,0.0,0.0,0.0,0.0,0.0,0.0,0.0,0.0,-0.0,0.0,-0.0,0.0,0.0,0.0,0.0,0.0,0.0,0.0,0.0,0.0,1.7842059426212736e-05,-0.006773198625775399,-9.810475632237031,0.0,0.0,0.0,0.0,0.0,0.0,0.0,0.0,0.0
1710444585.872427,369,1710444585,872314453,map,0.0004075169710634179,6.0863110247311765e-06,1.623612911200034e-08,0.9999999169464341,0.0,0.0,0.0,0.0,0.0,0.0,0.0,0.0,0.0,-0.0,0.0,-0.0,0.0,0.0,0.0,0.0,0.0,0.0,0.0,0.0,0.0,1.82427824175092e-05,-0.006758371816477656,-9.810476097898295,0.0,0.0,0.0,0.0,0.0,0.0,0.0,0.0,0.0
1710444585.889519,370,1710444585,889412880,map,0.0004075169710634179,6.0863110247311765e-06,1.623612911200034e-08,0.9999999169464341,0.0,0.0,0.0,0.0,0.0,0.0,0.0,0.0,0.0,-0.0,0.0,-0.0,0.0,0.0,0.0,0.0,0.0,0.0,0.0,0.0,0.0,1.8413227400867628e-05,-0.006772640878176028,-9.810476097898295,0.0,0.0,0.0,0.0,0.0,0.0,0.0,0.0,0.0
1710444585.9057791,371,1710444585,905650854,map,0.0004075169710634179,6.0863110247311765e-06,1.623612911200034e-08,0.9999999169464341,0.0,0.0,0.0,0.0,0.0,0.0,0.0,0.0,0.0,-0.0,0.0,-0.0,0.0,0.0,0.0,0.0,0.0,0.0,0.0,0.0,0.0,1.7851505203257594e-05,-0.006757821344835555,-9.810476097898295,0.0,0.0,0.0,0.0,0.0,0.0,0.0,0.0,0.0
1710444585.9223247,372,1710444585,922064304,map,0.0004075169710634179,6.0863110247311765e-06,1.623612911200034e-08,0.9999999169464341,0.0,0.0,0.0,0.0,0.0,0.0,0.0,0.0,0.0,-0.0,0.0,-0.0,0.0,0.0,0.0,0.0,0.0,0.0,0.0,0.0,0.0,1.7874199048981452e-05,-0.006772099501480512,-9.810476097898295,0.0,0.0,0.0,0.0,0.0,0.0,0.0,0.0,0.0
1710444585.938946,373,1710444585,938692570,map,0.0004075169710634179,6.0863110247311765e-06,1.623612911200034e-08,0.9999999169464341,0.0,0.0,0.0,0.0,0.0,0.0,0.0,0.0,0.0,-0.0,0.0,-0.0,0.0,0.0,0.0,0.0,0.0,0.0,0.0,0.0,0.0,1.789806884287714e-05,-0.006756958007030903,-9.810002054730333,0.0,0.0,0.0,0.0,0.0,0.0,0.0,0.0,0.0
1710444585.9555628,374,1710444585,955453873,map,0.0004075169710634179,6.0863110247311765e-06,1.623612911200034e-08,0.9999999169464341,0.0,0.0,0.0,0.0,0.0,0.0,0.0,0.0,0.0,-0.0,0.0,-0.0,0.0,0.0,0.0,0.0,0.0,0.0,0.0,0.0,0.0,1.9622404102155604e-05,-0.006771896911545314,-9.810945484453608,0.0,0.0,0.0,0.0,0.0,0.0,0.0,0.0,0.0
1710444585.9727683,375,1710444585,972641945,map,0.0004075169710634179,6.0863110247311765e-06,1.623612911200034e-08,0.9999999169464341,0.0,0.0,0.0,0.0,0.0,0.0,0.0,0.0,0.0,-0.0,0.0,-0.0,0.0,0.0,0.0,0.0,0.0,0.0,0.0,0.0,0.0,1.872291033211216e-05,-0.0067567808829461454,-9.810489602074986,0.0,0.0,0.0,0.0,0.0,0.0,0.0,0.0,0.0
1710444585.98902,376,1710444585,988858938,map,0.0004075169710634179,6.0863110247311765e-06,1.623612911200034e-08,0.9999999169464341,0.0,0.0,0.0,0.0,0.0,0.0,0.0,0.0,0.0,-0.0,0.0,-0.0,0.0,0.0,0.0,0.0,0.0,0.0,0.0,0.0,0.0,1.7948981003832992e-05,-0.006763670304984846,-9.810476097898295,0.0,0.0,0.0,0.0,0.0,0.0,0.0,0.0,0.0
1710444586.0057256,377,1710444586,5583525,map,0.0004075169710634179,6.0863110247311765e-06,1.623612911200034e-08,0.9999999169464341,0.0,0.0,0.0,0.0,0.0,0.0,0.0,0.0,0.0,-0.0,0.0,-0.0,0.0,0.0,0.0,0.0,0.0,0.0,0.0,0.0,0.0,1.7856964835744173e-05,-0.006763631196714527,-9.810476097898295,0.0,0.0,0.0,0.0,0.0,0.0,0.0,0.0,0.0
1710444586.0228136,378,1710444586,22554636,map,0.0004075169710634179,6.0863110247311765e-06,1.623612911200034e-08,0.9999999169464341,0.0,0.0,0.0,0.0,0.0,0.0,0.0,0.0,0.0,-0.0,0.0,-0.0,0.0,0.0,0.0,0.0,0.0,0.0,0.0,0.0,0.0,1.7899156861389596e-05,-0.006755988485724863,-9.810476097898295,0.0,0.0,0.0,0.0,0.0,0.0,0.0,0.0,0.0
1710444586.039577,379,1710444586,39372921,map,0.0004075169710634179,6.0863110247311765e-06,1.623612911200034e-08,0.9999999169464341,0.0,0.0,0.0,0.0,0.0,0.0,0.0,0.0,0.0,-0.0,0.0,-0.0,0.0,0.0,0.0,0.0,0.0,0.0,0.0,0.0,0.0,1.824175568330479e-05,-0.006770503793102043,-9.810476097898295,0.0,0.0,0.0,0.0,0.0,0.0,0.0,0.0,0.0
1710444586.055998,380,1710444586,55876255,map,0.0004075169710634179,6.0863110247311765e-06,1.623612911200034e-08,0.9999999169464341,0.0,0.0,0.0,0.0,0.0,0.0,0.0,0.0,0.0,-0.0,0.0,-0.0,0.0,0.0,0.0,0.0,0.0,0.0,0.0,0.0,0.0,1.8441661543445358e-05,-0.006755721549042571,-9.810476097898295,0.0,0.0,0.0,0.0,0.0,0.0,0.0,0.0,0.0
1710444586.0726783,381,1710444586,72476625,map,0.0004075169710634179,6.0863110247311765e-06,1.623612911200034e-08,0.9999999169464341,0.0,0.0,0.0,0.0,0.0,0.0,0.0,0.0,0.0,-0.0,0.0,-0.0,0.0,0.0,0.0,0.0,0.0,0.0,0.0,0.0,0.0,1.7835767570586427e-05,-0.006762585050483502,-9.810410439659904,0.0,0.0,0.0,0.0,0.0,0.0,0.0,0.0,0.0
1710444586.0891886,382,1710444586,89107037,map,0.0004075169710634179,6.0863110247311765e-06,1.623612911200034e-08,0.9999999169464341,0.0,0.0,0.0,0.0,0.0,0.0,0.0,0.0,0.0,-0.0,0.0,-0.0,0.0,0.0,0.0,0.0,0.0,0.0,0.0,0.0,0.0,1.7958379707423845e-05,-0.00676237245610706,-9.810135699513442,0.0,0.0,0.0,0.0,0.0,0.0,0.0,0.0,0.0
1710444586.105786,383,1710444586,105656385,map,0.0004075169710634179,6.0863110247311765e-06,1.623612911200034e-08,0.9999999169464341,0.0,0.0,0.0,0.0,0.0,0.0,0.0,0.0,0.0,-0.0,0.0,-0.0,0.0,0.0,0.0,0.0,0.0,0.0,0.0,0.0,0.0,1.7876142383271453e-05,-0.006770059959708659,-9.810879360553951,0.0,0.0,0.0,0.0,0.0,0.0,0.0,0.0,0.0
1710444586.122315,384,1710444586,122167349,map,0.0004075169710634179,6.0863110247311765e-06,1.623612911200034e-08,0.9999999169464341,0.0,0.0,0.0,0.0,0.0,0.0,0.0,0.0,0.0,-0.0,0.0,-0.0,0.0,0.0,0.0,0.0,0.0,0.0,0.0,0.0,0.0,1.791274599056556e-05,-0.006769601119653408,-9.810487273768661,0.0,0.0,0.0,0.0,0.0,0.0,0.0,0.0,0.0
1710444586.1389985,385,1710444586,138875723,map,0.0004075169710634179,6.0863110247311765e-06,1.623612911200034e-08,0.9999999169464341,0.0,0.0,0.0,0.0,0.0,0.0,0.0,0.0,0.0,-0.0,0.0,-0.0,0.0,0.0,0.0,0.0,0.0,0.0,0.0,0.0,0.0,2.0024756012596428e-05,-0.006769191164936056,-9.810475632237031,0.0,0.0,0.0,0.0,0.0,0.0,0.0,0.0,0.0
1710444586.1556668,386,1710444586,155561447,map,0.0004075169710634179,6.0863110247311765e-06,1.623612911200034e-08,0.9999999169464341,0.0,0.0,0.0,0.0,0.0,0.0,0.0,0.0,0.0,-0.0,0.0,-0.0,0.0,0.0,0.0,0.0,0.0,0.0,0.0,0.0,0.0,1.839330644803837e-05,-0.006768795989506905,-9.810476097898295,0.0,0.0,0.0,0.0,0.0,0.0,0.0,0.0,0.0
1710444586.1724005,387,1710444586,172289848,map,0.0004075169710634179,6.0863110247311765e-06,1.623612911200034e-08,0.9999999169464341,0.0,0.0,0.0,0.0,0.0,0.0,0.0,0.0,0.0,-0.0,0.0,-0.0,0.0,0.0,0.0,0.0,0.0,0.0,0.0,0.0,0.0,1.7959979316681746e-05,-0.006761005713008888,-9.810476097898295,0.0,0.0,0.0,0.0,0.0,0.0,0.0,0.0,0.0
1710444586.1889138,388,1710444586,188817024,map,0.0004075169710634179,6.0863110247311765e-06,1.623612911200034e-08,0.9999999169464341,0.0,0.0,0.0,0.0,0.0,0.0,0.0,0.0,0.0,-0.0,0.0,-0.0,0.0,0.0,0.0,0.0,0.0,0.0,0.0,0.0,0.0,1.7868378816073605e-05,-0.006767971532598908,-9.810476097898295,0.0,0.0,0.0,0.0,0.0,0.0,0.0,0.0,0.0
1710444586.2055304,389,1710444586,205412865,map,0.0004075169710634179,6.0863110247311765e-06,1.623612911200034e-08,0.9999999169464341,0.0,0.0,0.0,0.0,0.0,0.0,0.0,0.0,0.0,-0.0,0.0,-0.0,0.0,0.0,0.0,0.0,0.0,0.0,0.0,0.0,0.0,1.789628982158698e-05,-0.006767470628415698,-9.810002054730333,0.0,0.0,0.0,0.0,0.0,0.0,0.0,0.0,0.0
1710444586.2223177,390,1710444586,222207546,map,0.0004075169710634179,6.0863110247311765e-06,1.623612911200034e-08,0.9999999169464341,0.0,0.0,0.0,0.0,0.0,0.0,0.0,0.0,0.0,-0.0,0.0,-0.0,0.0,0.0,0.0,0.0,0.0,0.0,0.0,0.0,0.0,1.7871007824071044e-05,-0.006767751889638862,-9.810945484453608,0.0,0.0,0.0,0.0,0.0,0.0,0.0,0.0,0.0
1710444586.2392435,391,1710444586,239068985,map,0.0004075169710634179,6.0863110247311765e-06,1.623612911200034e-08,0.9999999169464341,0.0,0.0,0.0,0.0,0.0,0.0,0.0,0.0,0.0,-0.0,0.0,-0.0,0.0,0.0,0.0,0.0,0.0,0.0,0.0,0.0,0.0,1.880529509387522e-05,-0.006767064993797974,-9.810489136413722,0.0,0.0,0.0,0.0,0.0,0.0,0.0,0.0,0.0
1710444586.2555437,392,1710444586,255428553,map,0.0004075169710634179,6.0863110247311765e-06,1.623612911200034e-08,0.9999999169464341,0.0,0.0,0.0,0.0,0.0,0.0,0.0,0.0,0.0,-0.0,0.0,-0.0,0.0,0.0,0.0,0.0,0.0,0.0,0.0,0.0,0.0,1.7925633458823284e-05,-0.006759286313356853,-9.810476097898295,0.0,0.0,0.0,0.0,0.0,0.0,0.0,0.0,0.0
1710444586.2725341,393,1710444586,272333622,map,0.0004075169710634179,6.0863110247311765e-06,1.623612911200034e-08,0.9999999169464341,0.0,0.0,0.0,0.0,0.0,0.0,0.0,0.0,0.0,-0.0,0.0,-0.0,0.0,0.0,0.0,0.0,0.0,0.0,0.0,0.0,0.0,1.792954766093299e-05,-0.006766278963039302,-9.810475632237031,0.0,0.0,0.0,0.0,0.0,0.0,0.0,0.0,0.0
1710444586.2894845,394,1710444586,289365053,map,0.0004075169710634179,6.0863110247311765e-06,1.623612911200034e-08,0.9999999169464341,0.0,0.0,0.0,0.0,0.0,0.0,0.0,0.0,0.0,-0.0,0.0,-0.0,0.0,0.0,0.0,0.0,0.0,0.0,0.0,0.0,0.0,1.792287033589084e-05,-0.0067661323070256066,-9.810475632237031,0.0,0.0,0.0,0.0,0.0,0.0,0.0,0.0,0.0
1710444586.305639,395,1710444586,305514574,map,0.0004075169710634179,6.0863110247311765e-06,1.623612911200034e-08,0.9999999169464341,0.0,0.0,0.0,0.0,0.0,0.0,0.0,0.0,0.0,-0.0,0.0,-0.0,0.0,0.0,0.0,0.0,0.0,0.0,0.0,0.0,0.0,1.7913007115008546e-05,-0.00676578237895572,-9.810475632237031,0.0,0.0,0.0,0.0,0.0,0.0,0.0,0.0,0.0
1710444586.322431,396,1710444586,322323084,map,0.0004075169710634179,6.0863110247311765e-06,1.623612911200034e-08,0.9999999169464341,0.0,0.0,0.0,0.0,0.0,0.0,0.0,0.0,0.0,-0.0,0.0,-0.0,0.0,0.0,0.0,0.0,0.0,0.0,0.0,0.0,0.0,1.7934397114874213e-05,-0.006758031438101685,-9.810476097898295,0.0,0.0,0.0,0.0,0.0,0.0,0.0,0.0,0.0
1710444586.3390257,397,1710444586,338897943,map,0.0004075169710634179,6.0863110247311765e-06,1.623612911200034e-08,0.9999999169464341,0.0,0.0,0.0,0.0,0.0,0.0,0.0,0.0,0.0,-0.0,0.0,-0.0,0.0,0.0,0.0,0.0,0.0,0.0,0.0,0.0,0.0,1.8724220395218994e-05,-0.00676499748506537,-9.81040997399864,0.0,0.0,0.0,0.0,0.0,0.0,0.0,0.0,0.0
1710444586.355673,398,1710444586,355567932,map,0.0004075169710634179,6.0863110247311765e-06,1.623612911200034e-08,0.9999999169464341,0.0,0.0,0.0,0.0,0.0,0.0,0.0,0.0,0.0,-0.0,0.0,-0.0,0.0,0.0,0.0,0.0,0.0,0.0,0.0,0.0,0.0,1.982120950928643e-05,-0.006764682799913504,-9.810135233852177,0.0,0.0,0.0,0.0,0.0,0.0,0.0,0.0,0.0
1710444586.3724225,399,1710444586,372314215,map,0.0004075169710634179,6.0863110247311765e-06,1.623612911200034e-08,0.9999999169464341,0.0,0.0,0.0,0.0,0.0,0.0,0.0,0.0,0.0,-0.0,0.0,-0.0,0.0,0.0,0.0,0.0,0.0,0.0,0.0,0.0,0.0,1.7897356523818373e-05,-0.006757465050303058,-9.810878894892685,0.0,0.0,0.0,0.0,0.0,0.0,0.0,0.0,0.0
1710444586.3895059,400,1710444586,389379025,map,0.0004075169710634179,6.0863110247311765e-06,1.623612911200034e-08,0.9999999169464341,0.0,0.0,0.0,0.0,0.0,0.0,0.0,0.0,0.0,-0.0,0.0,-0.0,0.0,0.0,0.0,0.0,0.0,0.0,0.0,0.0,0.0,1.7979591183435632e-05,-0.006764218048142972,-9.810486808107395,0.0,0.0,0.0,0.0,0.0,0.0,0.0,0.0,0.0
1710444586.4060566,401,1710444586,405913591,map,0.0004075169710634179,6.0863110247311765e-06,1.623612911200034e-08,0.9999999169464341,0.0,0.0,0.0,0.0,0.0,0.0,0.0,0.0,0.0,-0.0,0.0,-0.0,0.0,0.0,0.0,0.0,0.0,0.0,0.0,0.0,0.0,1.7897649622682953e-05,-0.006764090491517107,-9.810475632237031,0.0,0.0,0.0,0.0,0.0,0.0,0.0,0.0,0.0
1710444586.4231813,402,1710444586,423051357,map,0.0004075169710634179,6.0863110247311765e-06,1.623612911200034e-08,0.9999999169464341,0.0,0.0,0.0,0.0,0.0,0.0,0.0,0.0,0.0,-0.0,0.0,-0.0,0.0,0.0,0.0,0.0,0.0,0.0,0.0,0.0,0.0,1.7917183329739618e-05,-0.006756364334392519,-9.810476097898295,0.0,0.0,0.0,0.0,0.0,0.0,0.0,0.0,0.0
1710444586.4391494,403,1710444586,439045906,map,0.0004075169710634179,6.0863110247311765e-06,1.623612911200034e-08,0.9999999169464341,0.0,0.0,0.0,0.0,0.0,0.0,0.0,0.0,0.0,-0.0,0.0,-0.0,0.0,0.0,0.0,0.0,0.0,0.0,0.0,0.0,0.0,1.795683072433346e-05,-0.006755995761682131,-9.810476097898295,0.0,0.0,0.0,0.0,0.0,0.0,0.0,0.0,0.0
1710444586.4559262,404,1710444586,455752611,map,0.0004075169710634179,6.0863110247311765e-06,1.623612911200034e-08,0.9999999169464341,0.0,0.0,0.0,0.0,0.0,0.0,0.0,0.0,0.0,-0.0,0.0,-0.0,0.0,0.0,0.0,0.0,0.0,0.0,0.0,0.0,0.0,1.792286678317733e-05,-0.0067632494363315905,-9.810475632237031,0.0,0.0,0.0,0.0,0.0,0.0,0.0,0.0,0.0
1710444586.4727805,405,1710444586,472682714,map,0.0004075169710634179,6.0863110247311765e-06,1.623612911200034e-08,0.9999999169464341,0.0,0.0,0.0,0.0,0.0,0.0,0.0,0.0,0.0,-0.0,0.0,-0.0,0.0,0.0,0.0,0.0,0.0,0.0,0.0,0.0,0.0,1.884889132953549e-05,-0.006763150301413806,-9.810475632237031,0.0,0.0,0.0,0.0,0.0,0.0,0.0,0.0,0.0
1710444586.4896379,406,1710444586,489524126,map,0.0004075169710634179,6.0863110247311765e-06,1.623612911200034e-08,0.9999999169464341,0.0,0.0,0.0,0.0,0.0,0.0,0.0,0.0,0.0,-0.0,0.0,-0.0,0.0,0.0,0.0,0.0,0.0,0.0,0.0,0.0,0.0,1.7894296749307837e-05,-0.006755114916105302,-9.810002054730333,0.0,0.0,0.0,0.0,0.0,0.0,0.0,0.0,0.0
1710444586.505829,407,1710444586,505677700,map,0.0004075169710634179,6.0863110247311765e-06,1.623612911200034e-08,0.9999999169464341,0.0,0.0,0.0,0.0,0.0,0.0,0.0,0.0,0.0,-0.0,0.0,-0.0,0.0,0.0,0.0,0.0,0.0,0.0,0.0,0.0,0.0,1.802397434513838e-05,-0.006755413230353315,-9.810945950114872,0.0,0.0,0.0,0.0,0.0,0.0,0.0,0.0,0.0
1710444586.5222921,408,1710444586,522145271,map,0.0004075169710634179,6.0863110247311765e-06,1.623612911200034e-08,0.9999999169464341,0.0,0.0,0.0,0.0,0.0,0.0,0.0,0.0,0.0,-0.0,0.0,-0.0,0.0,0.0,0.0,0.0,0.0,0.0,0.0,0.0,0.0,1.795212604346777e-05,-0.006762359495808176,-9.810489136413722,0.0,0.0,0.0,0.0,0.0,0.0,0.0,0.0,0.0
1710444586.538842,409,1710444586,538719893,map,0.0004075169710634179,6.0863110247311765e-06,1.623612911200034e-08,0.9999999169464341,0.0,0.0,0.0,0.0,0.0,0.0,0.0,0.0,0.0,-0.0,0.0,-0.0,0.0,0.0,0.0,0.0,0.0,0.0,0.0,0.0,0.0,1.796599850154616e-05,-0.006754866851437176,-9.810476097898295,0.0,0.0,0.0,0.0,0.0,0.0,0.0,0.0,0.0
1710444586.5555408,410,1710444586,555350304,map,0.0004075169710634179,6.0863110247311765e-06,1.623612911200034e-08,0.9999999169464341,0.0,0.0,0.0,0.0,0.0,0.0,0.0,0.0,0.0,-0.0,0.0,-0.0,0.0,0.0,0.0,0.0,0.0,0.0,0.0,0.0,0.0,1.7962401379117228e-05,-0.006754524654071887,-9.810476097898295,0.0,0.0,0.0,0.0,0.0,0.0,0.0,0.0,0.0
1710444586.5722823,411,1710444586,572175264,map,0.0004075169710634179,6.0863110247311765e-06,1.623612911200034e-08,0.9999999169464341,0.0,0.0,0.0,0.0,0.0,0.0,0.0,0.0,0.0,-0.0,0.0,-0.0,0.0,0.0,0.0,0.0,0.0,0.0,0.0,0.0,0.0,1.8027574132102444e-05,-0.006761798110230171,-9.810475632237031,0.0,0.0,0.0,0.0,0.0,0.0,0.0,0.0,0.0
1710444586.5889943,412,1710444586,588885069,map,0.0004075169710634179,6.0863110247311765e-06,1.623612911200034e-08,0.9999999169464341,0.0,0.0,0.0,0.0,0.0,0.0,0.0,0.0,0.0,-0.0,0.0,-0.0,0.0,0.0,0.0,0.0,0.0,0.0,0.0,0.0,0.0,1.7957179778435822e-05,-0.0067543184261580555,-9.810476097898295,0.0,0.0,0.0,0.0,0.0,0.0,0.0,0.0,0.0
1710444586.6060119,413,1710444586,605872869,map,0.0004075169710634179,6.0863110247311765e-06,1.623612911200034e-08,0.9999999169464341,0.0,0.0,0.0,0.0,0.0,0.0,0.0,0.0,0.0,-0.0,0.0,-0.0,0.0,0.0,0.0,0.0,0.0,0.0,0.0,0.0,0.0,1.9756050967155255e-05,-0.006753935983654125,-9.810410439659904,0.0,0.0,0.0,0.0,0.0,0.0,0.0,0.0,0.0
1710444586.6223352,414,1710444586,622199535,map,0.0004075169710634179,6.0863110247311765e-06,1.623612911200034e-08,0.9999999169464341,0.0,0.0,0.0,0.0,0.0,0.0,0.0,0.0,0.0,-0.0,0.0,-0.0,0.0,0.0,0.0,0.0,0.0,0.0,0.0,0.0,0.0,1.8843726572270247e-05,-0.006761026631386035,-9.810135233852177,0.0,0.0,0.0,0.0,0.0,0.0,0.0,0.0,0.0
1710444586.6389427,415,1710444586,638801575,map,0.0004075169710634179,6.0863110247311765e-06,1.623612911200034e-08,0.9999999169464341,0.0,0.0,0.0,0.0,0.0,0.0,0.0,0.0,0.0,-0.0,0.0,-0.0,0.0,0.0,0.0,0.0,0.0,0.0,0.0,0.0,0.0,1.8067979142852306e-05,-0.0067466670749691355,-9.810878894892685,0.0,0.0,0.0,0.0,0.0,0.0,0.0,0.0,0.0
1710444586.6555743,416,1710444586,655458450,map,0.0004075169710634179,6.0863110247311765e-06,1.623612911200034e-08,0.9999999169464341,0.0,0.0,0.0,0.0,0.0,0.0,0.0,0.0,0.0,-0.0,0.0,-0.0,0.0,0.0,0.0,0.0,0.0,0.0,0.0,0.0,0.0,1.7958047528710656e-05,-0.006760826542561149,-9.810487273768661,0.0,0.0,0.0,0.0,0.0,0.0,0.0,0.0,0.0
1710444586.6721842,417,1710444586,672049761,map,0.0004075169710634179,6.0863110247311765e-06,1.623612911200034e-08,0.9999999169464341,0.0,0.0,0.0,0.0,0.0,0.0,0.0,0.0,0.0,-0.0,0.0,-0.0,0.0,0.0,0.0,0.0,0.0,0.0,0.0,0.0,0.0,1.797694085915713e-05,-0.006753558088623488,-9.810476097898295,0.0,0.0,0.0,0.0,0.0,0.0,0.0,0.0,0.0
1710444586.689855,418,1710444586,689688683,map,0.0004075169710634179,6.0863110247311765e-06,1.623612911200034e-08,0.9999999169464341,0.0,0.0,0.0,0.0,0.0,0.0,0.0,0.0,0.0,-0.0,0.0,-0.0,0.0,0.0,0.0,0.0,0.0,0.0,0.0,0.0,0.0,1.795057173130712e-05,-0.006753242039229633,-9.810476097898295,0.0,0.0,0.0,0.0,0.0,0.0,0.0,0.0,0.0
1710444586.7064111,419,1710444586,706280947,map,0.0004075169710634179,6.0863110247311765e-06,1.623612911200034e-08,0.9999999169464341,0.0,0.0,0.0,0.0,0.0,0.0,0.0,0.0,0.0,-0.0,0.0,-0.0,0.0,0.0,0.0,0.0,0.0,0.0,0.0,0.0,0.0,1.802477814657003e-05,-0.006753131763002281,-9.810476097898295,0.0,0.0,0.0,0.0,0.0,0.0,0.0,0.0,0.0
1710444586.7223635,420,1710444586,722243309,map,0.0004075169710634179,6.0863110247311765e-06,1.623612911200034e-08,0.9999999169464341,0.0,0.0,0.0,0.0,0.0,0.0,0.0,0.0,0.0,-0.0,0.0,-0.0,0.0,0.0,0.0,0.0,0.0,0.0,0.0,0.0,0.0,1.796708474370186e-05,-0.006753031491216173,-9.810476097898295,0.0,0.0,0.0,0.0,0.0,0.0,0.0,0.0,0.0
1710444586.739416,421,1710444586,739185572,map,0.0004075169710634179,6.0863110247311765e-06,1.623612911200034e-08,0.9999999169464341,0.0,0.0,0.0,0.0,0.0,0.0,0.0,0.0,0.0,-0.0,0.0,-0.0,0.0,0.0,0.0,0.0,0.0,0.0,0.0,0.0,0.0,1.803393082475031e-05,-0.006752926217209443,-9.810476097898295,0.0,0.0,0.0,0.0,0.0,0.0,0.0,0.0,0.0
1710444586.7567263,422,1710444586,756525278,map,0.0004075169710634179,6.0863110247311765e-06,1.623612911200034e-08,0.9999999169464341,0.0,0.0,0.0,0.0,0.0,0.0,0.0,0.0,0.0,-0.0,0.0,-0.0,0.0,0.0,0.0,0.0,0.0,0.0,0.0,0.0,0.0,1.8018439217489713e-05,-0.006752497163104261,-9.810002054730333,0.0,0.0,0.0,0.0,0.0,0.0,0.0,0.0,0.0
1710444586.773761,423,1710444586,773569584,map,0.0004075169710634179,6.0863110247311765e-06,1.623612911200034e-08,0.9999999169464341,0.0,0.0,0.0,0.0,0.0,0.0,0.0,0.0,0.0,-0.0,0.0,-0.0,0.0,0.0,0.0,0.0,0.0,0.0,0.0,0.0,0.0,1.889662914097011e-05,-0.006753046725251705,-9.810945484453608,0.0,0.0,0.0,0.0,0.0,0.0,0.0,0.0,0.0
1710444586.7903056,424,1710444586,790193558,map,0.0004075169710634179,6.0863110247311765e-06,1.623612911200034e-08,0.9999999169464341,0.0,0.0,0.0,0.0,0.0,0.0,0.0,0.0,0.0,-0.0,0.0,-0.0,0.0,0.0,0.0,0.0,0.0,0.0,0.0,0.0,0.0,1.8005123647254024e-05,-0.006760029370492908,-9.810489136413722,0.0,0.0,0.0,0.0,0.0,0.0,0.0,0.0,0.0
1710444586.8060396,425,1710444586,805898190,map,0.0004075169710634179,6.0863110247311765e-06,1.623612911200034e-08,0.9999999169464341,0.0,0.0,0.0,0.0,0.0,0.0,0.0,0.0,0.0,-0.0,0.0,-0.0,0.0,0.0,0.0,0.0,0.0,0.0,0.0,0.0,0.0,1.8044186620475463e-05,-0.006759965023745814,-9.810475166575765,0.0,0.0,0.0,0.0,0.0,0.0,0.0,0.0,0.0
1710444586.8227067,426,1710444586,822520018,map,0.0004075169710634179,6.0863110247311765e-06,1.623612911200034e-08,0.9999999169464341,0.0,0.0,0.0,0.0,0.0,0.0,0.0,0.0,0.0,-0.0,0.0,-0.0,0.0,0.0,0.0,0.0,0.0,0.0,0.0,0.0,0.0,1.802975549819762e-05,-0.006759698996558181,-9.810475632237031,0.0,0.0,0.0,0.0,0.0,0.0,0.0,0.0,0.0
1710444586.8393312,427,1710444586,839190245,map,0.0004075169710634179,6.0863110247311765e-06,1.623612911200034e-08,0.9999999169464341,0.0,0.0,0.0,0.0,0.0,0.0,0.0,0.0,0.0,-0.0,0.0,-0.0,0.0,0.0,0.0,0.0,0.0,0.0,0.0,0.0,0.0,1.8030689861850762e-05,-0.006759431150381231,-9.810475632237031,0.0,0.0,0.0,0.0,0.0,0.0,0.0,0.0,0.0
1710444586.855816,428,1710444586,855622292,map,0.0004075169710634179,6.0863110247311765e-06,1.623612911200034e-08,0.9999999169464341,0.0,0.0,0.0,0.0,0.0,0.0,0.0,0.0,0.0,-0.0,0.0,-0.0,0.0,0.0,0.0,0.0,0.0,0.0,0.0,0.0,0.0,1.8044574754426438e-05,-0.006759163304204281,-9.810475632237031,0.0,0.0,0.0,0.0,0.0,0.0,0.0,0.0,0.0
1710444586.8736,429,1710444586,873459578,map,0.0004075169710634179,6.0863110247311765e-06,1.623612911200034e-08,0.9999999169464341,0.0,0.0,0.0,0.0,0.0,0.0,0.0,0.0,0.0,-0.0,0.0,-0.0,0.0,0.0,0.0,0.0,0.0,0.0,0.0,0.0,0.0,1.804608821038172e-05,-0.006758900914995283,-9.810475632237031,0.0,0.0,0.0,0.0,0.0,0.0,0.0,0.0,0.0
1710444586.8895068,430,1710444586,889370918,map,0.0004075169710634179,6.0863110247311765e-06,1.623612911200034e-08,0.9999999169464341,0.0,0.0,0.0,0.0,0.0,0.0,0.0,0.0,0.0,-0.0,0.0,-0.0,0.0,0.0,0.0,0.0,0.0,0.0,0.0,0.0,0.0,1.8038905511842767e-05,-0.006758596689031989,-9.81040997399864,0.0,0.0,0.0,0.0,0.0,0.0,0.0,0.0,0.0
1710444586.9060504,431,1710444586,905892611,map,0.0004075169710634179,6.0863110247311765e-06,1.623612911200034e-08,0.9999999169464341,0.0,0.0,0.0,0.0,0.0,0.0,0.0,0.0,0.0,-0.0,0.0,-0.0,0.0,0.0,0.0,0.0,0.0,0.0,0.0,0.0,0.0,1.807573382826638e-05,-0.006758151264022952,-9.810134768190911,0.0,0.0,0.0,0.0,0.0,0.0,0.0,0.0,0.0
1710444586.9229367,432,1710444586,922762394,map,0.0004075169710634179,6.0863110247311765e-06,1.623612911200034e-08,0.9999999169464341,0.0,0.0,0.0,0.0,0.0,0.0,0.0,0.0,0.0,-0.0,0.0,-0.0,0.0,0.0,0.0,0.0,0.0,0.0,0.0,0.0,0.0,1.8076767667897807e-05,-0.006765814666016099,-9.810878894892685,0.0,0.0,0.0,0.0,0.0,0.0,0.0,0.0,0.0
1710444586.9398005,433,1710444586,939552069,map,0.0004075169710634179,6.0863110247311765e-06,1.623612911200034e-08,0.9999999169464341,0.0,0.0,0.0,0.0,0.0,0.0,0.0,0.0,0.0,-0.0,0.0,-0.0,0.0,0.0,0.0,0.0,0.0,0.0,0.0,0.0,0.0,1.808194752419547e-05,-0.006757938214899182,-9.810486808107395,0.0,0.0,0.0,0.0,0.0,0.0,0.0,0.0,0.0
1710444586.95652,434,1710444586,956329823,map,0.0004075169710634179,6.0863110247311765e-06,1.623612911200034e-08,0.9999999169464341,0.0,0.0,0.0,0.0,0.0,0.0,0.0,0.0,0.0,-0.0,0.0,-0.0,0.0,0.0,0.0,0.0,0.0,0.0,0.0,0.0,0.0,1.9775790731595503e-05,-0.006757470962018339,-9.810475632237031,0.0,0.0,0.0,0.0,0.0,0.0,0.0,0.0,0.0
1710444586.974929,435,1710444586,974679470,map,0.0004075169710634179,6.0863110247311765e-06,1.623612911200034e-08,0.9999999169464341,0.0,0.0,0.0,0.0,0.0,0.0,0.0,0.0,0.0,-0.0,0.0,-0.0,0.0,0.0,0.0,0.0,0.0,0.0,0.0,0.0,0.0,1.8466947981853182e-05,-0.006757224261592201,-9.810475632237031,0.0,0.0,0.0,0.0,0.0,0.0,0.0,0.0,0.0
1710444586.9895377,436,1710444586,989446640,map,0.0004075169710634179,6.0863110247311765e-06,1.623612911200034e-08,0.9999999169464341,0.0,0.0,0.0,0.0,0.0,0.0,0.0,0.0,0.0,-0.0,0.0,-0.0,0.0,0.0,0.0,0.0,0.0,0.0,0.0,0.0,0.0,3.700149344366219e-06,-0.007763390244294631,-9.810475166575765,0.0,0.0,0.0,0.0,0.0,0.0,0.0,0.0,0.0
1710444587.0063334,437,1710444587,6192923,map,0.000409886279813951,5.735665670556368e-06,-3.201267043210722e-07,0.9999999159801151,0.0,0.0,0.0,0.0,0.0,0.0,0.0,0.0,0.0,0.0004738621742256398,-7.015664555539454e-05,-6.724093201701722e-05,0.0,0.0,0.0,0.0,0.0,0.0,0.0,0.0,0.0,0.001183074389327997,-0.009219423207946277,-9.81047376959197,0.0,0.0,0.0,0.0,0.0,0.0,0.0,0.0,0.0
1710444587.0228205,438,1710444587,22536993,map,0.00041512031228310573,5.763904107035618e-06,-3.4986098719959476e-07,0.9999999138208869,0.0,0.0,0.0,0.0,0.0,0.0,0.0,0.0,0.0,0.001046806615359724,5.6455557672388675e-06,-5.94319654086753e-06,0.0,0.0,0.0,0.0,0.0,0.0,0.0,0.0,0.0,0.00173429940564615,-0.01035132796406492,-9.81047283826944,0.0,0.0,0.0,0.0,0.0,0.0,0.0,0.0,0.0
1710444587.0401793,439,1710444587,39993763,map,0.00042307378117965004,5.783967652731002e-06,-3.815302537572602e-07,0.9999999104874839,0.0,0.0,0.0,0.0,0.0,0.0,0.0,0.0,0.0,0.0015906939542244128,4.010589529917895e-06,-6.326382047898768e-06,0.0,0.0,0.0,0.0,0.0,0.0,0.0,0.0,0.0,-0.0027981202584860215,-0.013666521487065967,-9.811481926231107,0.0,0.0,0.0,0.0,0.0,0.0,0.0,0.0,0.0
1710444587.0562322,440,1710444587,56117296,map,0.00043368713158311987,5.880794708553237e-06,-4.0591318031254045e-07,0.9999999059403573,0.0,0.0,0.0,0.0,0.0,0.0,0.0,0.0,0.0,0.002122670296771609,1.936410968390114e-05,-4.8727062825319075e-06,0.0,0.0,0.0,0.0,0.0,0.0,0.0,0.0,0.0,9.305844541483179e-07,-0.018572564868069432,-9.810936636889569,0.0,0.0,0.0,0.0,0.0,0.0,0.0,0.0,0.0
1710444587.0727634,441,1710444587,72620630,map,0.00044730684389620174,5.943154432422687e-06,-4.3427167289462774e-07,0.9999998999405338,0.0,0.0,0.0,0.0,0.0,0.0,0.0,0.0,0.0,0.0027239427555413517,1.2470519495455506e-05,-5.661258290985967e-06,0.0,0.0,0.0,0.0,0.0,0.0,0.0,0.0,0.0,-0.0003993879703772224,-0.023647175808082368,-9.81130637193413,0.0,0.0,0.0,0.0,0.0,0.0,0.0,0.0,0.0
1710444587.090302,442,1710444587,90199947,map,0.00046360123484259536,6.020919019854197e-06,-4.6051898063135883e-07,0.99999989251871,0.0,0.0,0.0,0.0,0.0,0.0,0.0,0.0,0.0,0.0032588785521592703,1.5551906533676997e-05,-5.237303986352816e-06,0.0,0.0,0.0,0.0,0.0,0.0,0.0,0.0,0.0,0.00019885478984861717,-0.030042036024574108,-9.81135480070571,0.0,0.0,0.0,0.0,0.0,0.0,0.0,0.0,0.0
1710444587.1064358,443,1710444587,106257915,map,0.0004828721585272824,6.1038707986199556e-06,-4.859339548022113e-07,0.9999998833984859,0.0,0.0,0.0,0.0,0.0,0.0,0.0,0.0,0.0,0.0038541851919371623,1.6589685736843563e-05,-5.067800402622419e-06,0.0,0.0,0.0,0.0,0.0,0.0,0.0,0.0,0.0,-6.099156029189547e-05,-0.03751428224937092,-9.81091428514884,0.0,0.0,0.0,0.0,0.0,0.0,0.0,0.0,0.0
1710444587.1226923,444,1710444587,122555971,map,0.0005043819806930514,6.193760647294143e-06,-5.105455028197632e-07,0.9999998727800891,0.0,0.0,0.0,0.0,0.0,0.0,0.0,0.0,0.0,0.004301964979085563,1.7977588721474874e-05,-4.905119183421267e-06,0.0,0.0,0.0,0.0,0.0,0.0,0.0,0.0,0.0,1.6138164704114375e-05,-0.047227361877592786,-9.811623487255725,0.0,0.0,0.0,0.0,0.0,0.0,0.0,0.0,0.0
1710444587.13942,445,1710444587,139318466,map,0.0005267449248315142,6.2925370817344305e-06,-5.340835368089645e-07,0.9999998612499419,0.0,0.0,0.0,0.0,0.0,0.0,0.0,0.0,0.0,0.00447258944171781,1.975510280161435e-05,-4.6903112258230375e-06,0.0,0.0,0.0,0.0,0.0,0.0,0.0,0.0,0.0,-2.2106528889943214e-06,-0.05597930164780059,-9.810921270067817,0.0,0.0,0.0,0.0,0.0,0.0,0.0,0.0,0.0
1710444587.155976,446,1710444587,155870914,map,0.000548906672483001,6.401017451548587e-06,-5.561586740944209e-07,0.99999984933008,0.0,0.0,0.0,0.0,0.0,0.0,0.0,0.0,0.0,0.004432350188088205,2.1696030120096535e-05,-4.399046513912639e-06,0.0,0.0,0.0,0.0,0.0,0.0,0.0,0.0,0.0,-2.680305316950453e-05,-0.06532741607619848,-9.811145253136374,0.0,0.0,0.0,0.0,0.0,0.0,0.0,0.0,0.0
1710444587.172092,447,1710444587,171966314,map,0.0005695857202068388,6.520348614553932e-06,-5.765879322161287e-07,0.9999998377646169,0.0,0.0,0.0,0.0,0.0,0.0,0.0,0.0,0.0,0.004135810204958459,2.3866217006316425e-05,-4.072972772012656e-06,0.0,0.0,0.0,0.0,0.0,0.0,0.0,0.0,0.0,-1.2746241678453566e-05,-0.07495949292689642,-9.810714050804808,0.0,0.0,0.0,0.0,0.0,0.0,0.0,0.0,0.0
1710444587.1885006,448,1710444587,188342571,map,0.0005880743299706677,6.652480845313618e-06,-5.949399376189958e-07,0.9999998270619715,0.0,0.0,0.0,0.0,0.0,0.0,0.0,0.0,0.0,0.0036977225814689113,2.6426429577762584e-05,-3.661831998112809e-06,0.0,0.0,0.0,0.0,0.0,0.0,0.0,0.0,0.0,-4.735177846959638e-05,-0.08380648853134512,-9.81027819186059,0.0,0.0,0.0,0.0,0.0,0.0,0.0,0.0,0.0
1710444587.2055187,449,1710444587,205388546,map,0.0006041564024911066,6.8004883107694436e-06,-6.102434307705831e-07,0.9999998174741944,0.0,0.0,0.0,0.0,0.0,0.0,0.0,0.0,0.0,0.0032164150788538265,2.9601565221521724e-05,-3.057186039172283e-06,0.0,0.0,0.0,0.0,0.0,0.0,0.0,0.0,0.0,2.3580362319627654e-05,-0.09209129365501602,-9.810598101149775,0.0,0.0,0.0,0.0,0.0,0.0,0.0,0.0,0.0
1710444587.2225463,450,1710444587,222344637,map,0.0006172880825865743,6.93623620927157e-06,-6.140739130560523e-07,0.9999998094534492,0.0,0.0,0.0,0.0,0.0,0.0,0.0,0.0,0.0,0.0026263364976976712,2.7150715472801955e-05,-7.649960558267171e-07,0.0,0.0,0.0,0.0,0.0,0.0,0.0,0.0,0.0,-6.70300417752483e-05,-0.09966726774562322,-9.810190647542735,0.0,0.0,0.0,0.0,0.0,0.0,0.0,0.0,0.0
1710444587.2397501,451,1710444587,239611864,map,0.0006271749996533613,7.003184983882288e-06,-5.97458349878133e-07,0.9999998033010399,0.0,0.0,0.0,0.0,0.0,0.0,0.0,0.0,0.0,0.0019773837646727336,1.3393059391644906e-05,3.3284290931302213e-06,0.0,0.0,0.0,0.0,0.0,0.0,0.0,0.0,0.0,0.00016241348827122055,-0.1046422908395116,-9.8091610704854,0.0,0.0,0.0,0.0,0.0,0.0,0.0,0.0,0.0
1710444587.2563994,452,1710444587,256209612,map,0.0006345063683316331,7.098320374559621e-06,-5.750234994131933e-07,0.9999997986754556,0.0,0.0,0.0,0.0,0.0,0.0,0.0,0.0,0.0,0.0014662739842453967,1.9030803907488524e-05,4.485164414428806e-06,0.0,0.0,0.0,0.0,0.0,0.0,0.0,0.0,0.0,0.0005195847274332729,-0.10380245255784823,-9.808880742403755,0.0,0.0,0.0,0.0,0.0,0.0,0.0,0.0,0.0
1710444587.273066,453,1710444587,272969007,map,0.0006403252696182067,7.2021250747313115e-06,-5.459723597026782e-07,0.9999997949656692,0.0,0.0,0.0,0.0,0.0,0.0,0.0,0.0,0.0,0.001163780440016777,2.0765330729133308e-05,5.805193450835939e-06,0.0,0.0,0.0,0.0,0.0,0.0,0.0,0.0,0.0,-3.2450414812712014e-05,-0.10701543616162404,-9.809638373282219,0.0,0.0,0.0,0.0,0.0,0.0,0.0,0.0,0.0
1710444587.2901762,454,1710444587,290067434,map,0.0006452650026694591,7.321699507142408e-06,-5.096125208393616e-07,0.9999997917895831,0.0,0.0,0.0,0.0,0.0,0.0,0.0,0.0,0.0,0.0009879467481379212,2.3920117850814836e-05,7.263649784844256e-06,0.0,0.0,0.0,0.0,0.0,0.0,0.0,0.0,0.0,1.1424444847075203e-05,-0.11072515937256801,-9.80919878904788,0.0,0.0,0.0,0.0,0.0,0.0,0.0,0.0,0.0
1710444587.306152,455,1710444587,306016922,map,0.0006498173056358697,7.386419130298593e-06,-4.541040666548768e-07,0.9999997888413297,0.0,0.0,0.0,0.0,0.0,0.0,0.0,0.0,0.0,0.0009104606956004193,1.295160429855172e-05,1.1099943122713039e-05,0.0,0.0,0.0,0.0,0.0,0.0,0.0,0.0,0.0,9.867433157065235e-05,-0.1186241877848901,-9.80881927511675,0.0,0.0,0.0,0.0,0.0,0.0,0.0,0.0,0.0
1710444587.322712,456,1710444587,322543144,map,0.0006544925821026647,7.487958728284871e-06,-3.9131891090516974e-07,0.9999997857915958,0.0,0.0,0.0,0.0,0.0,0.0,0.0,0.0,0.0,0.0009350553890230201,2.0316562880901076e-05,1.255064350872629e-05,0.0,0.0,0.0,0.0,0.0,0.0,0.0,0.0,0.0,0.0005591871730957874,-0.11715829157903988,-9.808737784395342,0.0,0.0,0.0,0.0,0.0,0.0,0.0,0.0,0.0
1710444587.3392618,457,1710444587,339157343,map,0.0006603077975785443,7.598540984216708e-06,-3.1919352012558767e-07,0.9999997819678627,0.0,0.0,0.0,0.0,0.0,0.0,0.0,0.0,0.0,0.0011630432283056713,2.2126432253657077e-05,1.4419179862393527e-05,0.0,0.0,0.0,0.0,0.0,0.0,0.0,0.0,0.0,7.223956200947315e-05,-0.11786789932054201,-9.808827657019524,0.0,0.0,0.0,0.0,0.0,0.0,0.0,0.0,0.0
1710444587.3556743,458,1710444587,355549812,map,0.000667791863710273,7.66687083561168e-06,-2.2527031567591025e-07,0.9999997769975727,0.0,0.0,0.0,0.0,0.0,0.0,0.0,0.0,0.0,0.0014968134080077147,1.3678996873383298e-05,1.8786883952889194e-05,0.0,0.0,0.0,0.0,0.0,0.0,0.0,0.0,0.0,0.00021186673097688238,-0.12155323079423767,-9.80966631295813,0.0,0.0,0.0,0.0,0.0,0.0,0.0,0.0,0.0
1710444587.3724995,459,1710444587,372369766,map,0.0006771013202668449,7.776808232196012e-06,-1.2159560617032303e-07,0.999999770736628,0.0,0.0,0.0,0.0,0.0,0.0,0.0,0.0,0.0,0.00186189156613037,2.2001943094583847e-05,2.073432399023379e-05,0.0,0.0,0.0,0.0,0.0,0.0,0.0,0.0,0.0,0.0005036855457733745,-0.1199930027118948,-9.80929844055863,0.0,0.0,0.0,0.0,0.0,0.0,0.0,0.0,0.0
1710444587.3896172,460,1710444587,389500141,map,0.0006885417225392373,7.87012825403159e-06,6.410715543887635e-09,0.9999997629241506,0.0,0.0,0.0,0.0,0.0,0.0,0.0,0.0,0.0,0.002288080784165678,1.8681918056294207e-05,2.5606201097320547e-05,0.0,0.0,0.0,0.0,0.0,0.0,0.0,0.0,0.0,4.60774800855799e-05,-0.12297270730220893,-9.809776209016716,0.0,0.0,0.0,0.0,0.0,0.0,0.0,0.0,0.0
1710444587.4054315,461,1710444587,405345917,map,0.0007020123665040024,7.966482782475172e-06,1.4223304121499437e-07,0.9999997535575458,0.0,0.0,0.0,0.0,0.0,0.0,0.0,0.0,0.0,0.0026941292278962626,1.9289968487589524e-05,2.717213317685364e-05,0.0,0.0,0.0,0.0,0.0,0.0,0.0,0.0,0.0,0.00039059912203479274,-0.1271594854726782,-9.809794369806058,0.0,0.0,0.0,0.0,0.0,0.0,0.0,0.0,0.0
1710444587.4228103,462,1710444587,422608376,map,0.0007171146437243898,8.060714057050333e-06,3.074778415043519e-07,0.9999997428407259,0.0,0.0,0.0,0.0,0.0,0.0,0.0,0.0,0.0,0.0030204559407694237,1.8869537791642445e-05,3.305949935107248e-05,0.0,0.0,0.0,0.0,0.0,0.0,0.0,0.0,0.0,0.00029682654923001816,-0.12816905319277735,-9.810751303706024,0.0,0.0,0.0,0.0,0.0,0.0,0.0,0.0,0.0
1710444587.4392958,463,1710444587,439180374,map,0.0007332712625602595,8.1629989486812e-06,4.820532376939198e-07,0.9999997311231582,0.0,0.0,0.0,0.0,0.0,0.0,0.0,0.0,0.0,0.003231324338190483,2.0481600800746016e-05,3.492611684902763e-05,0.0,0.0,0.0,0.0,0.0,0.0,0.0,0.0,0.0,0.00029792132500356885,-0.13395153701323118,-9.810761082592592,0.0,0.0,0.0,0.0,0.0,0.0,0.0,0.0,0.0
1710444587.4557374,464,1710444587,455610514,map,0.0007504076783480055,8.260768692720195e-06,6.920092599191218e-07,0.999999718409759,0.0,0.0,0.0,0.0,0.0,0.0,0.0,0.0,0.0,0.0034272837632128685,1.9583822926179845e-05,4.20044973499429e-05,0.0,0.0,0.0,0.0,0.0,0.0,0.0,0.0,0.0,0.0003174305680750022,-0.13669212954609086,-9.810274932231733,0.0,0.0,0.0,0.0,0.0,0.0,0.0,0.0,0.0
1710444587.4722767,465,1710444587,472152233,map,0.0007674396522391154,8.369451807778697e-06,9.106693712923319e-07,0.9999997054827082,0.0,0.0,0.0,0.0,0.0,0.0,0.0,0.0,0.0,0.003406395408311718,2.1767842877849395e-05,4.374346911673397e-05,0.0,0.0,0.0,0.0,0.0,0.0,0.0,0.0,0.0,0.00033978728260303703,-0.14405331283065587,-9.811670519043508,0.0,0.0,0.0,0.0,0.0,0.0,0.0,0.0,0.0
1710444587.4892259,466,1710444587,489143133,map,0.0007838122941797442,8.4480948028189e-06,1.1641176926122113e-06,0.9999996927827338,0.0,0.0,0.0,0.0,0.0,0.0,0.0,0.0,0.0,0.0032745289592416627,1.5765365052294822e-05,5.070472879114813e-05,0.0,0.0,0.0,0.0,0.0,0.0,0.0,0.0,0.0,0.0002672313443500664,-0.14643938525509798,-9.810725226675173,0.0,0.0,0.0,0.0,0.0,0.0,0.0,0.0,0.0
1710444587.505418,467,1710444587,505314350,map,0.0007994696325309022,8.555645578689447e-06,1.450788513614736e-06,0.9999996803864504,0.0,0.0,0.0,0.0,0.0,0.0,0.0,0.0,0.0,0.0031314681860870907,2.155236118458881e-05,5.734340703864438e-05,0.0,0.0,0.0,0.0,0.0,0.0,0.0,0.0,0.0,0.000532595553009496,-0.1500779739329372,-9.811090305107081,0.0,0.0,0.0,0.0,0.0,0.0,0.0,0.0,0.0
1710444587.5226514,468,1710444587,522439480,map,0.0008137263573386295,8.665846737699956e-06,1.74673668927779e-06,0.9999996688855789,0.0,0.0,0.0,0.0,0.0,0.0,0.0,0.0,0.0,0.0028513454082668517,2.2084271999141642e-05,5.9196079309341e-05,0.0,0.0,0.0,0.0,0.0,0.0,0.0,0.0,0.0,0.00022087067835877832,-0.15599666549244842,-9.811613708369155,0.0,0.0,0.0,0.0,0.0,0.0,0.0,0.0,0.0
1710444587.539534,469,1710444587,539409399,map,0.0008263961106493402,8.744330196418722e-06,2.085713889086981e-06,0.9999996584942692,0.0,0.0,0.0,0.0,0.0,0.0,0.0,0.0,0.0,0.002533950948893096,1.574830441454591e-05,6.78044076385399e-05,0.0,0.0,0.0,0.0,0.0,0.0,0.0,0.0,0.0,0.00033129420121303304,-0.15861358369108003,-9.810235816685458,0.0,0.0,0.0,0.0,0.0,0.0,0.0,0.0,0.0
1710444587.5562267,470,1710444587,556098223,map,0.0008378885741337584,8.851630867698778e-06,2.4661089968345316e-06,0.9999996489290905,0.0,0.0,0.0,0.0,0.0,0.0,0.0,0.0,0.0,0.002298492864224885,2.1519095425776617e-05,7.608111646333602e-05,0.0,0.0,0.0,0.0,0.0,0.0,0.0,0.0,0.0,0.0005620051072922663,-0.1604527765225741,-9.810660965420576,0.0,0.0,0.0,0.0,0.0,0.0,0.0,0.0,0.0
1710444587.5722716,471,1710444587,572147131,map,0.0008478239163235718,8.941956350205546e-06,2.868974428443223e-06,0.9999996405531442,0.0,0.0,0.0,0.0,0.0,0.0,0.0,0.0,0.0,0.0019870684680592834,1.8128516472867383e-05,8.057533431540557e-05,0.0,0.0,0.0,0.0,0.0,0.0,0.0,0.0,0.0,0.0002738802832112707,-0.1647351790751327,-9.810515213444573,0.0,0.0,0.0,0.0,0.0,0.0,0.0,0.0,0.0
1710444587.5890763,472,1710444587,588984489,map,0.000856533689719667,9.028730801170507e-06,3.3080697747030195e-06,0.9999996331287212,0.0,0.0,0.0,0.0,0.0,0.0,0.0,0.0,0.0,0.001741954568886909,1.7425119607156045e-05,8.781975277200228e-05,0.0,0.0,0.0,0.0,0.0,0.0,0.0,0.0,0.0,0.0004668765987438169,-0.16327937712312432,-9.809216949837221,0.0,0.0,0.0,0.0,0.0,0.0,0.0,0.0,0.0
1710444587.6055954,473,1710444587,605503321,map,0.0008646734433724235,9.12030776339222e-06,3.785340986762275e-06,0.9999996261210939,0.0,0.0,0.0,0.0,0.0,0.0,0.0,0.0,0.0,0.00162795052375466,1.8392549743804762e-05,9.545307289937102e-05,0.0,0.0,0.0,0.0,0.0,0.0,0.0,0.0,0.0,0.0004202040897714702,-0.16413901169289988,-9.80960158604227,0.0,0.0,0.0,0.0,0.0,0.0,0.0,0.0,0.0
1710444587.622221,474,1710444587,622097969,map,0.0008724108657923844,9.210397703058752e-06,4.30183824652186e-06,0.9999996193978996,0.0,0.0,0.0,0.0,0.0,0.0,0.0,0.0,0.0,0.0015474841848413727,1.8102255255853032e-05,0.00010329781221776009,0.0,0.0,0.0,0.0,0.0,0.0,0.0,0.0,0.0,0.0004562452527789427,-0.16486636322044346,-9.809620212492877,0.0,0.0,0.0,0.0,0.0,0.0,0.0,0.0,0.0
1710444587.639337,475,1710444587,639239311,map,0.0008802228462710155,9.300365412899157e-06,4.859726211381164e-06,0.9999996125487386,0.0,0.0,0.0,0.0,0.0,0.0,0.0,0.0,0.0,0.0015623957357896114,1.808503969633603e-05,0.00011157610764934169,0.0,0.0,0.0,0.0,0.0,0.0,0.0,0.0,0.0,0.0004296788001151566,-0.1648381988993514,-9.809630457040711,0.0,0.0,0.0,0.0,0.0,0.0,0.0,0.0,0.0
1710444587.6556437,476,1710444587,655520439,map,0.000888783504433081,9.39449931080828e-06,5.462201109333426e-06,0.9999996049728169,0.0,0.0,0.0,0.0,0.0,0.0,0.0,0.0,0.0,0.001712131262210201,1.8925559831589072e-05,0.0001204941299454182,0.0,0.0,0.0,0.0,0.0,0.0,0.0,0.0,0.0,0.0004564786589511264,-0.16497072773251487,-9.809575509011419,0.0,0.0,0.0,0.0,0.0,0.0,0.0,0.0,0.0
1710444587.672541,477,1710444587,672342539,map,0.000898115456409356,9.490271976179471e-06,6.110625139333174e-06,0.9999995966305297,0.0,0.0,0.0,0.0,0.0,0.0,0.0,0.0,0.0,0.0018663900147178744,1.926081851432306e-05,0.00012968509371928628,0.0,0.0,0.0,0.0,0.0,0.0,0.0,0.0,0.0,0.00047103885841621985,-0.16555196121245389,-9.809179696936008,0.0,0.0,0.0,0.0,0.0,0.0,0.0,0.0,0.0
1710444587.6892166,478,1710444587,689134598,map,0.0009084717021646056,9.588007447591897e-06,6.807442313801779e-06,0.9999995872703625,0.0,0.0,0.0,0.0,0.0,0.0,0.0,0.0,0.0,0.002071248780058696,1.9661055293664243e-05,0.0001393652876811332,0.0,0.0,0.0,0.0,0.0,0.0,0.0,0.0,0.0,0.00045930589415157463,-0.16571960927236354,-9.80925001178705,0.0,0.0,0.0,0.0,0.0,0.0,0.0,0.0,0.0
1710444587.7056022,479,1710444587,705506086,map,0.0009220503747077751,9.693815218957557e-06,7.562240106611138e-06,0.9999995748358841,0.0,0.0,0.0,0.0,0.0,0.0,0.0,0.0,0.0,0.0027157343277185654,2.1282274584850477e-05,0.00015096603802416486,0.0,0.0,0.0,0.0,0.0,0.0,0.0,0.0,0.0,0.0005329815837540716,-0.16669930964262245,-9.809134527793283,0.0,0.0,0.0,0.0,0.0,0.0,0.0,0.0,0.0
1710444587.7226887,480,1710444587,722497463,map,0.0009400882154694994,9.813834709595923e-06,8.375560647191817e-06,0.9999995580337453,0.0,0.0,0.0,0.0,0.0,0.0,0.0,0.0,0.0,0.003607568302277731,2.4129558038984653e-05,0.00016267646744669138,0.0,0.0,0.0,0.0,0.0,0.0,0.0,0.0,0.0,0.0005149603876308982,-0.17069380836409123,-9.809689130360125,0.0,0.0,0.0,0.0,0.0,0.0,0.0,0.0,0.0
1710444587.7391105,481,1710444587,739023447,map,0.0009643733614619254,9.94990034851023e-06,9.266683372685063e-06,0.9999995348994658,0.0,0.0,0.0,0.0,0.0,0.0,0.0,0.0,0.0,0.004857029856463167,2.7344356351671317e-05,0.0001782459244137368,0.0,0.0,0.0,0.0,0.0,0.0,0.0,0.0,0.0,0.0005381861669377627,-0.17684160844930724,-9.810179937333634,0.0,0.0,0.0,0.0,0.0,0.0,0.0,0.0,0.0
1710444587.7557986,482,1710444587,755663633,map,0.000996362457759923,1.0112461899922294e-05,1.0247773798215064e-05,0.9999995035271638,0.0,0.0,0.0,0.0,0.0,0.0,0.0,0.0,0.0,0.006397820652881727,3.264857637634026e-05,0.00019624931134819095,0.0,0.0,0.0,0.0,0.0,0.0,0.0,0.0,0.0,0.0006516636307469694,-0.18704652232525623,-9.810245129910761,0.0,0.0,0.0,0.0,0.0,0.0,0.0,0.0,0.0
1710444587.7725658,483,1710444587,772301435,map,0.0010352358843902167,1.0291082325905514e-05,1.1312748708239994e-05,0.999999464026246,0.0,0.0,0.0,0.0,0.0,0.0,0.0,0.0,0.0,0.007774687513533538,3.5864975829806873e-05,0.00021303659025598336,0.0,0.0,0.0,0.0,0.0,0.0,0.0,0.0,0.0,0.0007089057466288125,-0.20321732735026515,-9.81097714941964,0.0,0.0,0.0,0.0,0.0,0.0,0.0,0.0,0.0
1710444587.7893093,484,1710444587,789215803,map,0.0010801479355985876,1.0480669647823834e-05,1.25025427879985e-05,0.9999994165069694,0.0,0.0,0.0,0.0,0.0,0.0,0.0,0.0,0.0,0.008982413203884555,3.807295919272342e-05,0.00023801027143510424,0.0,0.0,0.0,0.0,0.0,0.0,0.0,0.0,0.0,0.0007806349400262851,-0.21896994673126163,-9.81147773527972,0.0,0.0,0.0,0.0,0.0,0.0,0.0,0.0,0.0
1710444587.8056874,485,1710444587,805574656,map,0.0011300668985770748,1.0631965683568523e-05,1.3792767423126384e-05,0.999999361322559,0.0,0.0,0.0,0.0,0.0,0.0,0.0,0.0,0.0,0.009983796330410539,3.0426093961188324e-05,0.00025811534834119243,0.0,0.0,0.0,0.0,0.0,0.0,0.0,0.0,0.0,0.0010210938880158144,-0.23296020466103642,-9.81129286775744,0.0,0.0,0.0,0.0,0.0,0.0,0.0,0.0,0.0
1710444587.8225842,486,1710444587,822473288,map,0.0011821911636205114,1.0800178553185061e-05,1.5221032544841847e-05,0.9999993010376204,0.0,0.0,0.0,0.0,0.0,0.0,0.0,0.0,0.0,0.010424857359134414,3.383659328936277e-05,0.00028572406320240555,0.0,0.0,0.0,0.0,0.0,0.0,0.0,0.0,0.0,0.0013435635325629283,-0.24652253444001612,-9.810884482827868,0.0,0.0,0.0,0.0,0.0,0.0,0.0,0.0,0.0
1710444587.8398035,487,1710444587,839696169,map,0.0012347624594205627,1.0982767770453712e-05,1.6791494388482104e-05,0.999999237479256,0.0,0.0,0.0,0.0,0.0,0.0,0.0,0.0,0.0,0.010514263949287526,3.674575045796104e-05,0.0003141607961401937,0.0,0.0,0.0,0.0,0.0,0.0,0.0,0.0,0.0,0.0011828307726571854,-0.26241420645936203,-9.813046548082145,0.0,0.0,0.0,0.0,0.0,0.0,0.0,0.0,0.0
1710444587.8558218,488,1710444587,855635881,map,0.0012866855517592534,1.1169328728299316e-05,1.8518472047236418e-05,0.9999991719859589,0.0,0.0,0.0,0.0,0.0,0.0,0.0,0.0,0.0,0.010384623495878207,3.758235264053563e-05,0.00034546151755820986,0.0,0.0,0.0,0.0,0.0,0.0,0.0,0.0,0.0,0.0012304456033609393,-0.28115406377492963,-9.81347402512359,0.0,0.0,0.0,0.0,0.0,0.0,0.0,0.0,0.0
1710444587.8728707,489,1710444587,872751236,map,0.0013353341153544932,1.1353021156508396e-05,2.041261667508732e-05,0.9999991081682195,0.0,0.0,0.0,0.0,0.0,0.0,0.0,0.0,0.0,0.009729717468097006,3.706428450592607e-05,0.000378888449060545,0.0,0.0,0.0,0.0,0.0,0.0,0.0,0.0,0.0,0.0013865387894287761,-0.2997156046582425,-9.813092182886134,0.0,0.0,0.0,0.0,0.0,0.0,0.0,0.0,0.0
1710444587.8889334,490,1710444587,888844967,map,0.0013796799729244374,1.1539052844887353e-05,2.2482708584437242e-05,0.9999990479218219,0.0,0.0,0.0,0.0,0.0,0.0,0.0,0.0,0.0,0.008869175678201505,3.7596613389587445e-05,0.00041406760074499244,0.0,0.0,0.0,0.0,0.0,0.0,0.0,0.0,0.0,0.0015528175909190888,-0.3189144329962916,-9.81354853092602,0.0,0.0,0.0,0.0,0.0,0.0,0.0,0.0,0.0
1710444587.905681,491,1710444587,905536890,map,0.0014197976314240341,1.1723656673584856e-05,2.473592736027515e-05,0.9999989917121794,0.0,0.0,0.0,0.0,0.0,0.0,0.0,0.0,0.0,0.008023535119169516,3.7380294161789096e-05,0.00045068372473625707,0.0,0.0,0.0,0.0,0.0,0.0,0.0,0.0,0.0,0.001572730635408075,-0.335352140142795,-9.81250870932085,0.0,0.0,0.0,0.0,0.0,0.0,0.0,0.0,0.0
1710444587.922249,492,1710444587,921962500,map,0.0014545397049675456,1.1896896440385096e-05,2.7196725767264878e-05,0.9999989417159644,0.0,0.0,0.0,0.0,0.0,0.0,0.0,0.0,0.0,0.006948416901553087,3.5192027065577445e-05,0.0004921904778994044,0.0,0.0,0.0,0.0,0.0,0.0,0.0,0.0,0.0,0.0016901576081938484,-0.348519766520352,-9.81148844548882,0.0,0.0,0.0,0.0,0.0,0.0,0.0,0.0,0.0
1710444587.938968,493,1710444587,938821554,map,0.0014852621976775557,1.2074553684109413e-05,2.987418784769769e-05,0.9999988964783623,0.0,0.0,0.0,0.0,0.0,0.0,0.0,0.0,0.0,0.006144499699165024,3.615975581519331e-05,0.0005355124033416096,0.0,0.0,0.0,0.0,0.0,0.0,0.0,0.0,0.0,0.0019081668742482118,-0.3562148553074034,-9.81090450626227,0.0,0.0,0.0,0.0,0.0,0.0,0.0,0.0,0.0
1710444587.9554183,494,1710444587,955307722,map,0.0015159325358664732,1.2264995690481728e-05,3.279760829169427e-05,0.9999988503605559,0.0,0.0,0.0,0.0,0.0,0.0,0.0,0.0,0.0,0.006134068533755525,3.879156246778809e-05,0.0005847000245259211,0.0,0.0,0.0,0.0,0.0,0.0,0.0,0.0,0.0,0.001813910954770394,-0.365860526374763,-9.810205548703221,0.0,0.0,0.0,0.0,0.0,0.0,0.0,0.0,0.0
1710444587.9720833,495,1710444587,971906185,map,0.0015479922189766447,1.2452692232965384e-05,3.599958629956974e-05,0.9999988011338065,0.0,0.0,0.0,0.0,0.0,0.0,0.0,0.0,0.0,0.00641193743068191,3.83204179824962e-05,0.0006404156953605046,0.0,0.0,0.0,0.0,0.0,0.0,0.0,0.0,0.0,0.0020929911386889494,-0.37752204324014094,-9.809247683480725,0.0,0.0,0.0,0.0,0.0,0.0,0.0,0.0,0.0
