Time,header.seq,header.stamp.secs,header.stamp.nsecs,header.frame_id,orientation.x,orientation.y,orientation.z,orientation.w,orientation_covariance_0,orientation_covariance_1,orientation_covariance_2,orientation_covariance_3,orientation_covariance_4,orientation_covariance_5,orientation_covariance_6,orientation_covariance_7,orientation_covariance_8,angular_velocity.x,angular_velocity.y,angular_velocity.z,angular_velocity_covariance_0,angular_velocity_covariance_1,angular_velocity_covariance_2,angular_velocity_covariance_3,angular_velocity_covariance_4,angular_velocity_covariance_5,angular_velocity_covariance_6,angular_velocity_covariance_7,angular_velocity_covariance_8,linear_acceleration.x,linear_acceleration.y,linear_acceleration.z,linear_acceleration_covariance_0,linear_acceleration_covariance_1,linear_acceleration_covariance_2,linear_acceleration_covariance_3,linear_acceleration_covariance_4,linear_acceleration_covariance_5,linear_acceleration_covariance_6,linear_acceleration_covariance_7,linear_acceleration_covariance_8
1710444410.453504,212,1710444410,453398943,map,0.0004086122062682996,6.0238087248861995e-06,1.59757293936501e-08,0.9999999164998857,0.0,0.0,0.0,0.0,0.0,0.0,0.0,0.0,0.0,-0.0,0.0,-0.0,0.0,0.0,0.0,0.0,0.0,0.0,0.0,0.0,0.0,1.7401708580246732e-05,-0.006744726213367738,-9.810475632237031,0.0,0.0,0.0,0.0,0.0,0.0,0.0,0.0,0.0
1710444410.4698253,213,1710444410,469697952,map,0.0004086122062682996,6.0238087248861995e-06,1.59757293936501e-08,0.9999999164998857,0.0,0.0,0.0,0.0,0.0,0.0,0.0,0.0,0.0,-0.0,0.0,-0.0,0.0,0.0,0.0,0.0,0.0,0.0,0.0,0.0,0.0,1.6303072783467383e-05,-0.0067373377061351455,-9.810476097898295,0.0,0.0,0.0,0.0,0.0,0.0,0.0,0.0,0.0
1710444410.4867368,214,1710444410,486564398,map,0.0004086122062682996,6.0238087248861995e-06,1.59757293936501e-08,0.9999999164998857,0.0,0.0,0.0,0.0,0.0,0.0,0.0,0.0,0.0,-0.0,0.0,-0.0,0.0,0.0,0.0,0.0,0.0,0.0,0.0,0.0,0.0,1.8110778682507947e-05,-0.006752098349696476,-9.810475632237031,0.0,0.0,0.0,0.0,0.0,0.0,0.0,0.0,0.0
1710444410.503693,215,1710444410,503479958,map,0.0004086122062682996,6.0238087248861995e-06,1.59757293936501e-08,0.9999999164998857,0.0,0.0,0.0,0.0,0.0,0.0,0.0,0.0,0.0,-0.0,0.0,-0.0,0.0,0.0,0.0,0.0,0.0,0.0,0.0,0.0,0.0,1.7434679537976805e-05,-0.00673755780384252,-9.810476097898295,0.0,0.0,0.0,0.0,0.0,0.0,0.0,0.0,0.0
1710444410.5197775,216,1710444410,519668341,map,0.0004086122062682996,6.0238087248861995e-06,1.59757293936501e-08,0.9999999164998857,0.0,0.0,0.0,0.0,0.0,0.0,0.0,0.0,0.0,-0.0,0.0,-0.0,0.0,0.0,0.0,0.0,0.0,0.0,0.0,0.0,0.0,1.6786295999715984e-05,-0.006751782300302622,-9.810002054730333,0.0,0.0,0.0,0.0,0.0,0.0,0.0,0.0,0.0
1710444410.5363998,217,1710444410,536273718,map,0.0004086122062682996,6.0238087248861995e-06,1.59757293936501e-08,0.9999999164998857,0.0,0.0,0.0,0.0,0.0,0.0,0.0,0.0,0.0,-0.0,0.0,-0.0,0.0,0.0,0.0,0.0,0.0,0.0,0.0,0.0,0.0,1.690272463868915e-05,-0.006737886586161595,-9.810945950114872,0.0,0.0,0.0,0.0,0.0,0.0,0.0,0.0,0.0
1710444410.5532997,218,1710444410,553196669,map,0.0004086122062682996,6.0238087248861995e-06,1.59757293936501e-08,0.9999999164998857,0.0,0.0,0.0,0.0,0.0,0.0,0.0,0.0,0.0,-0.0,0.0,-0.0,0.0,0.0,0.0,0.0,0.0,0.0,0.0,0.0,0.0,1.647238001032422e-05,-0.006752124042920581,-9.810489602074986,0.0,0.0,0.0,0.0,0.0,0.0,0.0,0.0,0.0
1710444410.5708566,219,1710444410,570747375,map,0.0004086122062682996,6.0238087248861995e-06,1.59757293936501e-08,0.9999999164998857,0.0,0.0,0.0,0.0,0.0,0.0,0.0,0.0,0.0,-0.0,0.0,-0.0,0.0,0.0,0.0,0.0,0.0,0.0,0.0,0.0,0.0,1.904767453220688e-05,-0.0067375678082837644,-9.810476097898295,0.0,0.0,0.0,0.0,0.0,0.0,0.0,0.0,0.0
1710444410.5869465,220,1710444410,586733341,map,0.0004086122062682996,6.0238087248861995e-06,1.59757293936501e-08,0.9999999164998857,0.0,0.0,0.0,0.0,0.0,0.0,0.0,0.0,0.0,-0.0,0.0,-0.0,0.0,0.0,0.0,0.0,0.0,0.0,0.0,0.0,0.0,1.6447312951975644e-05,-0.006744720074278792,-9.810475632237031,0.0,0.0,0.0,0.0,0.0,0.0,0.0,0.0,0.0
1710444410.6072252,221,1710444410,607088566,map,0.0004086122062682996,6.0238087248861995e-06,1.59757293936501e-08,0.9999999164998857,0.0,0.0,0.0,0.0,0.0,0.0,0.0,0.0,0.0,-0.0,0.0,-0.0,0.0,0.0,0.0,0.0,0.0,0.0,0.0,0.0,0.0,1.6975306575699586e-05,-0.0067449294854239296,-9.810475632237031,0.0,0.0,0.0,0.0,0.0,0.0,0.0,0.0,0.0
1710444410.623123,222,1710444410,623020172,map,0.0004086122062682996,6.0238087248861995e-06,1.59757293936501e-08,0.9999999164998857,0.0,0.0,0.0,0.0,0.0,0.0,0.0,0.0,0.0,-0.0,0.0,-0.0,0.0,0.0,0.0,0.0,0.0,0.0,0.0,0.0,0.0,1.6970338994034153e-05,-0.006744933350776228,-9.810475632237031,0.0,0.0,0.0,0.0,0.0,0.0,0.0,0.0,0.0
1710444410.637378,223,1710444410,637277365,map,0.0004086122062682996,6.0238087248861995e-06,1.59757293936501e-08,0.9999999164998857,0.0,0.0,0.0,0.0,0.0,0.0,0.0,0.0,0.0,-0.0,0.0,-0.0,0.0,0.0,0.0,0.0,0.0,0.0,0.0,0.0,0.0,1.6503258419796867e-05,-0.006744931077039582,-9.810475632237031,0.0,0.0,0.0,0.0,0.0,0.0,0.0,0.0,0.0
1710444410.6535718,224,1710444410,653454065,map,0.0004086122062682996,6.0238087248861995e-06,1.59757293936501e-08,0.9999999164998857,0.0,0.0,0.0,0.0,0.0,0.0,0.0,0.0,0.0,-0.0,0.0,-0.0,0.0,0.0,0.0,0.0,0.0,0.0,0.0,0.0,0.0,1.9088767881199314e-05,-0.006737202418804682,-9.810002054730333,0.0,0.0,0.0,0.0,0.0,0.0,0.0,0.0,0.0
1710444410.6703672,225,1710444410,670258045,map,0.0004086122062682996,6.0238087248861995e-06,1.59757293936501e-08,0.9999999164998857,0.0,0.0,0.0,0.0,0.0,0.0,0.0,0.0,0.0,-0.0,0.0,-0.0,0.0,0.0,0.0,0.0,0.0,0.0,0.0,0.0,0.0,1.653243152678469e-05,-0.0067526144879152174,-9.810945484453608,0.0,0.0,0.0,0.0,0.0,0.0,0.0,0.0,0.0
1710444410.6866283,226,1710444410,686506033,map,0.0004086122062682996,6.0238087248861995e-06,1.59757293936501e-08,0.9999999164998857,0.0,0.0,0.0,0.0,0.0,0.0,0.0,0.0,0.0,-0.0,0.0,-0.0,0.0,0.0,0.0,0.0,0.0,0.0,0.0,0.0,0.0,1.6620598329785365e-05,-0.006737756983172748,-9.810489602074986,0.0,0.0,0.0,0.0,0.0,0.0,0.0,0.0,0.0
1710444410.7039473,227,1710444410,703829527,map,0.0004086122062682996,6.0238087248861995e-06,1.59757293936501e-08,0.9999999164998857,0.0,0.0,0.0,0.0,0.0,0.0,0.0,0.0,0.0,-0.0,0.0,-0.0,0.0,0.0,0.0,0.0,0.0,0.0,0.0,0.0,0.0,1.738391037373973e-05,-0.0067522927541797464,-9.810476097898295,0.0,0.0,0.0,0.0,0.0,0.0,0.0,0.0,0.0
1710444410.7204685,228,1710444410,720358610,map,0.0004086122062682996,6.0238087248861995e-06,1.59757293936501e-08,0.9999999164998857,0.0,0.0,0.0,0.0,0.0,0.0,0.0,0.0,0.0,-0.0,0.0,-0.0,0.0,0.0,0.0,0.0,0.0,0.0,0.0,0.0,0.0,1.654201674783482e-05,-0.006737742658631875,-9.810476097898295,0.0,0.0,0.0,0.0,0.0,0.0,0.0,0.0,0.0
1710444410.7371304,229,1710444410,737006426,map,0.0004086122062682996,6.0238087248861995e-06,1.59757293936501e-08,0.9999999164998857,0.0,0.0,0.0,0.0,0.0,0.0,0.0,0.0,0.0,-0.0,0.0,-0.0,0.0,0.0,0.0,0.0,0.0,0.0,0.0,0.0,0.0,1.7797930283525956e-05,-0.006744887876043299,-9.810475632237031,0.0,0.0,0.0,0.0,0.0,0.0,0.0,0.0,0.0
1710444410.7540295,230,1710444410,753809690,map,0.0004086122062682996,6.0238087248861995e-06,1.59757293936501e-08,0.9999999164998857,0.0,0.0,0.0,0.0,0.0,0.0,0.0,0.0,0.0,-0.0,0.0,-0.0,0.0,0.0,0.0,0.0,0.0,0.0,0.0,0.0,0.0,1.8094613836037196e-05,-0.0067450972871884365,-9.810475632237031,0.0,0.0,0.0,0.0,0.0,0.0,0.0,0.0,0.0
1710444410.7709448,231,1710444410,770726919,map,0.0004086122062682996,6.0238087248861995e-06,1.59757293936501e-08,0.9999999164998857,0.0,0.0,0.0,0.0,0.0,0.0,0.0,0.0,0.0,-0.0,0.0,-0.0,0.0,0.0,0.0,0.0,0.0,0.0,0.0,0.0,0.0,1.656362790411649e-05,-0.006737699685009258,-9.810476097898295,0.0,0.0,0.0,0.0,0.0,0.0,0.0,0.0,0.0
1710444410.7874882,232,1710444410,787333488,map,0.0004086122062682996,6.0238087248861995e-06,1.59757293936501e-08,0.9999999164998857,0.0,0.0,0.0,0.0,0.0,0.0,0.0,0.0,0.0,-0.0,0.0,-0.0,0.0,0.0,0.0,0.0,0.0,0.0,0.0,0.0,0.0,1.6934390862382652e-05,-0.006744727122862396,-9.810001589069067,0.0,0.0,0.0,0.0,0.0,0.0,0.0,0.0,0.0
1710444410.8037677,233,1710444410,803560734,map,0.0004086122062682996,6.0238087248861995e-06,1.59757293936501e-08,0.9999999164998857,0.0,0.0,0.0,0.0,0.0,0.0,0.0,0.0,0.0,-0.0,0.0,-0.0,0.0,0.0,0.0,0.0,0.0,0.0,0.0,0.0,0.0,1.719532079430707e-05,-0.006745593416524688,-9.810945018792342,0.0,0.0,0.0,0.0,0.0,0.0,0.0,0.0,0.0
1710444410.82082,234,1710444410,820667982,map,0.0004086122062682996,6.0238087248861995e-06,1.59757293936501e-08,0.9999999164998857,0.0,0.0,0.0,0.0,0.0,0.0,0.0,0.0,0.0,-0.0,0.0,-0.0,0.0,0.0,0.0,0.0,0.0,0.0,0.0,0.0,0.0,1.6609381525055743e-05,-0.006737881356567308,-9.810489602074986,0.0,0.0,0.0,0.0,0.0,0.0,0.0,0.0,0.0
1710444410.8370528,235,1710444410,836915731,map,0.0004086122062682996,6.0238087248861995e-06,1.59757293936501e-08,0.9999999164998857,0.0,0.0,0.0,0.0,0.0,0.0,0.0,0.0,0.0,-0.0,0.0,-0.0,0.0,0.0,0.0,0.0,0.0,0.0,0.0,0.0,0.0,1.825073161398795e-05,-0.006745220523714673,-9.810475632237031,0.0,0.0,0.0,0.0,0.0,0.0,0.0,0.0,0.0
1710444410.8538346,236,1710444410,853704453,map,0.0004086122062682996,6.0238087248861995e-06,1.59757293936501e-08,0.9999999164998857,0.0,0.0,0.0,0.0,0.0,0.0,0.0,0.0,0.0,-0.0,0.0,-0.0,0.0,0.0,0.0,0.0,0.0,0.0,0.0,0.0,0.0,1.7686841372958402e-05,-0.006745431526475463,-9.810475632237031,0.0,0.0,0.0,0.0,0.0,0.0,0.0,0.0,0.0
1710444410.870621,237,1710444410,870537996,map,0.0004086122062682996,6.0238087248861995e-06,1.59757293936501e-08,0.9999999164998857,0.0,0.0,0.0,0.0,0.0,0.0,0.0,0.0,0.0,-0.0,0.0,-0.0,0.0,0.0,0.0,0.0,0.0,0.0,0.0,0.0,0.0,1.666039405016825e-05,-0.006738034833790943,-9.810476097898295,0.0,0.0,0.0,0.0,0.0,0.0,0.0,0.0,0.0
1710444410.8871624,238,1710444410,886871576,map,0.0004086122062682996,6.0238087248861995e-06,1.59757293936501e-08,0.9999999164998857,0.0,0.0,0.0,0.0,0.0,0.0,0.0,0.0,0.0,-0.0,0.0,-0.0,0.0,0.0,0.0,0.0,0.0,0.0,0.0,0.0,0.0,1.664153091778661e-05,-0.006737981855727081,-9.810476097898295,0.0,0.0,0.0,0.0,0.0,0.0,0.0,0.0,0.0
1710444410.9041357,239,1710444410,903996706,map,0.0004086122062682996,6.0238087248861995e-06,1.59757293936501e-08,0.9999999164998857,0.0,0.0,0.0,0.0,0.0,0.0,0.0,0.0,0.0,-0.0,0.0,-0.0,0.0,0.0,0.0,0.0,0.0,0.0,0.0,0.0,0.0,1.7556698371658042e-05,-0.00674554157532915,-9.810475632237031,0.0,0.0,0.0,0.0,0.0,0.0,0.0,0.0,0.0
1710444410.9210422,240,1710444410,920925617,map,0.0004086122062682996,6.0238087248861995e-06,1.59757293936501e-08,0.9999999164998857,0.0,0.0,0.0,0.0,0.0,0.0,0.0,0.0,0.0,-0.0,0.0,-0.0,0.0,0.0,0.0,0.0,0.0,0.0,0.0,0.0,0.0,1.67179107055393e-05,-0.0067454235683971995,-9.810001589069067,0.0,0.0,0.0,0.0,0.0,0.0,0.0,0.0,0.0
1710444410.937034,241,1710444410,936903000,map,0.0004086122062682996,6.0238087248861995e-06,1.59757293936501e-08,0.9999999164998857,0.0,0.0,0.0,0.0,0.0,0.0,0.0,0.0,0.0,-0.0,0.0,-0.0,0.0,0.0,0.0,0.0,0.0,0.0,0.0,0.0,0.0,1.7161728111712738e-05,-0.006738670797930951,-9.810945950114872,0.0,0.0,0.0,0.0,0.0,0.0,0.0,0.0,0.0
1710444410.9536784,242,1710444410,953577518,map,0.0004086122062682996,6.0238087248861995e-06,1.59757293936501e-08,0.9999999164998857,0.0,0.0,0.0,0.0,0.0,0.0,0.0,0.0,0.0,-0.0,0.0,-0.0,0.0,0.0,0.0,0.0,0.0,0.0,0.0,0.0,0.0,1.8966692204101917e-05,-0.006738302452594228,-9.810489602074986,0.0,0.0,0.0,0.0,0.0,0.0,0.0,0.0,0.0
1710444410.970304,243,1710444410,970212221,map,0.0004086122062682996,6.0238087248861995e-06,1.59757293936501e-08,0.9999999164998857,0.0,0.0,0.0,0.0,0.0,0.0,0.0,0.0,0.0,-0.0,0.0,-0.0,0.0,0.0,0.0,0.0,0.0,0.0,0.0,0.0,0.0,1.669786451955881e-05,-0.006738454565575875,-9.810476097898295,0.0,0.0,0.0,0.0,0.0,0.0,0.0,0.0,0.0
1710444410.9866397,244,1710444410,986526728,map,0.0004086122062682996,6.0238087248861995e-06,1.59757293936501e-08,0.9999999164998857,0.0,0.0,0.0,0.0,0.0,0.0,0.0,0.0,0.0,-0.0,0.0,-0.0,0.0,0.0,0.0,0.0,0.0,0.0,0.0,0.0,0.0,1.683499926104696e-05,-0.006753419845435385,-9.810476097898295,0.0,0.0,0.0,0.0,0.0,0.0,0.0,0.0,0.0
1710444411.0033808,245,1710444411,3286839,map,0.0004086122062682996,6.0238087248861995e-06,1.59757293936501e-08,0.9999999164998857,0.0,0.0,0.0,0.0,0.0,0.0,0.0,0.0,0.0,-0.0,0.0,-0.0,0.0,0.0,0.0,0.0,0.0,0.0,0.0,0.0,0.0,1.7125141379807807e-05,-0.0067388665666562085,-9.810476097898295,0.0,0.0,0.0,0.0,0.0,0.0,0.0,0.0,0.0
1710444411.0204787,246,1710444411,20361423,map,0.0004086122062682996,6.0238087248861995e-06,1.59757293936501e-08,0.9999999164998857,0.0,0.0,0.0,0.0,0.0,0.0,0.0,0.0,0.0,-0.0,0.0,-0.0,0.0,0.0,0.0,0.0,0.0,0.0,0.0,0.0,0.0,1.7308980093099148e-05,-0.00673860122158957,-9.810476097898295,0.0,0.0,0.0,0.0,0.0,0.0,0.0,0.0,0.0
1710444411.0372465,247,1710444411,37119627,map,0.0004086122062682996,6.0238087248861995e-06,1.59757293936501e-08,0.9999999164998857,0.0,0.0,0.0,0.0,0.0,0.0,0.0,0.0,0.0,-0.0,0.0,-0.0,0.0,0.0,0.0,0.0,0.0,0.0,0.0,0.0,0.0,1.6770296354423447e-05,-0.006738755608307862,-9.810476097898295,0.0,0.0,0.0,0.0,0.0,0.0,0.0,0.0,0.0
1710444411.0542238,248,1710444411,54054737,map,0.0004086122062682996,6.0238087248861995e-06,1.59757293936501e-08,0.9999999164998857,0.0,0.0,0.0,0.0,0.0,0.0,0.0,0.0,0.0,-0.0,0.0,-0.0,0.0,0.0,0.0,0.0,0.0,0.0,0.0,0.0,0.0,1.683260562031956e-05,-0.006738595991995283,-9.810002054730333,0.0,0.0,0.0,0.0,0.0,0.0,0.0,0.0,0.0
1710444411.0707176,249,1710444411,70505619,map,0.0004086122062682996,6.0238087248861995e-06,1.59757293936501e-08,0.9999999164998857,0.0,0.0,0.0,0.0,0.0,0.0,0.0,0.0,0.0,-0.0,0.0,-0.0,0.0,0.0,0.0,0.0,0.0,0.0,0.0,0.0,0.0,1.845291831620197e-05,-0.006739412945572347,-9.810945484453608,0.0,0.0,0.0,0.0,0.0,0.0,0.0,0.0,0.0
1710444411.0872464,250,1710444411,87117434,map,0.0004086122062682996,6.0238087248861995e-06,1.59757293936501e-08,0.9999999164998857,0.0,0.0,0.0,0.0,0.0,0.0,0.0,0.0,0.0,-0.0,0.0,-0.0,0.0,0.0,0.0,0.0,0.0,0.0,0.0,0.0,0.0,1.787425766875437e-05,-0.0067466575252752205,-9.810489136413722,0.0,0.0,0.0,0.0,0.0,0.0,0.0,0.0,0.0
1710444411.1040313,251,1710444411,103840828,map,0.0004086122062682996,6.0238087248861995e-06,1.59757293936501e-08,0.9999999164998857,0.0,0.0,0.0,0.0,0.0,0.0,0.0,0.0,0.0,-0.0,0.0,-0.0,0.0,0.0,0.0,0.0,0.0,0.0,0.0,0.0,0.0,1.680258163844608e-05,-0.006746849883395509,-9.810475632237031,0.0,0.0,0.0,0.0,0.0,0.0,0.0,0.0,0.0
1710444411.1204023,252,1710444411,120259285,map,0.0004086122062682996,6.0238087248861995e-06,1.59757293936501e-08,0.9999999164998857,0.0,0.0,0.0,0.0,0.0,0.0,0.0,0.0,0.0,-0.0,0.0,-0.0,0.0,0.0,0.0,0.0,0.0,0.0,0.0,0.0,0.0,1.6831524707234125e-05,-0.006739434773444153,-9.810476097898295,0.0,0.0,0.0,0.0,0.0,0.0,0.0,0.0,0.0
1710444411.1369162,253,1710444411,136794090,map,0.0004086122062682996,6.0238087248861995e-06,1.59757293936501e-08,0.9999999164998857,0.0,0.0,0.0,0.0,0.0,0.0,0.0,0.0,0.0,-0.0,0.0,-0.0,0.0,0.0,0.0,0.0,0.0,0.0,0.0,0.0,0.0,1.7289097331940122e-05,-0.006739362013871467,-9.810476097898295,0.0,0.0,0.0,0.0,0.0,0.0,0.0,0.0,0.0
1710444411.1537101,254,1710444411,153574467,map,0.0004086122062682996,6.0238087248861995e-06,1.59757293936501e-08,0.9999999164998857,0.0,0.0,0.0,0.0,0.0,0.0,0.0,0.0,0.0,-0.0,0.0,-0.0,0.0,0.0,0.0,0.0,0.0,0.0,0.0,0.0,0.0,1.740182404343581e-05,-0.006739504577159198,-9.810476097898295,0.0,0.0,0.0,0.0,0.0,0.0,0.0,0.0,0.0
1710444411.1702216,255,1710444411,170074940,map,0.0004086122062682996,6.0238087248861995e-06,1.59757293936501e-08,0.9999999164998857,0.0,0.0,0.0,0.0,0.0,0.0,0.0,0.0,0.0,-0.0,0.0,-0.0,0.0,0.0,0.0,0.0,0.0,0.0,0.0,0.0,0.0,1.6874570272300337e-05,-0.006739652824788546,-9.810476097898295,0.0,0.0,0.0,0.0,0.0,0.0,0.0,0.0,0.0
1710444411.1869705,256,1710444411,186777592,map,0.0004086122062682996,6.0238087248861995e-06,1.59757293936501e-08,0.9999999164998857,0.0,0.0,0.0,0.0,0.0,0.0,0.0,0.0,0.0,-0.0,0.0,-0.0,0.0,0.0,0.0,0.0,0.0,0.0,0.0,0.0,0.0,1.6909157714677483e-05,-0.006739518901700071,-9.810067712968724,0.0,0.0,0.0,0.0,0.0,0.0,0.0,0.0,0.0
1710444411.2034378,257,1710444411,203265190,map,0.0004086122062682996,6.0238087248861995e-06,1.59757293936501e-08,0.9999999164998857,0.0,0.0,0.0,0.0,0.0,0.0,0.0,0.0,0.0,-0.0,0.0,-0.0,0.0,0.0,0.0,0.0,0.0,0.0,0.0,0.0,0.0,1.8595821776252072e-05,-0.006740181468558842,-9.810811374009234,0.0,0.0,0.0,0.0,0.0,0.0,0.0,0.0,0.0
1710444411.220478,258,1710444411,220237970,map,0.0004086122062682996,6.0238087248861995e-06,1.59757293936501e-08,0.9999999164998857,0.0,0.0,0.0,0.0,0.0,0.0,0.0,0.0,0.0,-0.0,0.0,-0.0,0.0,0.0,0.0,0.0,0.0,0.0,0.0,0.0,0.0,1.7947201094364454e-05,-0.006740153501598092,-9.810556191635909,0.0,0.0,0.0,0.0,0.0,0.0,0.0,0.0,0.0
1710444411.2373343,259,1710444411,237210274,map,0.0004086122062682996,6.0238087248861995e-06,1.59757293936501e-08,0.9999999164998857,0.0,0.0,0.0,0.0,0.0,0.0,0.0,0.0,0.0,-0.0,0.0,-0.0,0.0,0.0,0.0,0.0,0.0,0.0,0.0,0.0,0.0,1.695315185425088e-05,-0.006740247406921589,-9.810477960543357,0.0,0.0,0.0,0.0,0.0,0.0,0.0,0.0,0.0
1710444411.2538955,260,1710444411,253713131,map,0.0004086122062682996,6.0238087248861995e-06,1.59757293936501e-08,0.9999999164998857,0.0,0.0,0.0,0.0,0.0,0.0,0.0,0.0,0.0,-0.0,0.0,-0.0,0.0,0.0,0.0,0.0,0.0,0.0,0.0,0.0,0.0,1.6893015072666167e-05,-0.006740394062935284,-9.810476097898295,0.0,0.0,0.0,0.0,0.0,0.0,0.0,0.0,0.0
1710444411.2704427,261,1710444411,270268917,map,0.0004086122062682996,6.0238087248861995e-06,1.59757293936501e-08,0.9999999164998857,0.0,0.0,0.0,0.0,0.0,0.0,0.0,0.0,0.0,-0.0,0.0,-0.0,0.0,0.0,0.0,0.0,0.0,0.0,0.0,0.0,0.0,1.701003523843876e-05,-0.006740540718948979,-9.810476097898295,0.0,0.0,0.0,0.0,0.0,0.0,0.0,0.0,0.0
1710444411.2866201,262,1710444411,286504984,map,0.0004086122062682996,6.0238087248861995e-06,1.59757293936501e-08,0.9999999164998857,0.0,0.0,0.0,0.0,0.0,0.0,0.0,0.0,0.0,-0.0,0.0,-0.0,0.0,0.0,0.0,0.0,0.0,0.0,0.0,0.0,0.0,1.7832722895108308e-05,-0.00674068032637907,-9.810476097898295,0.0,0.0,0.0,0.0,0.0,0.0,0.0,0.0,0.0
1710444411.303395,263,1710444411,303224325,map,0.0004086122062682996,6.0238087248861995e-06,1.59757293936501e-08,0.9999999164998857,0.0,0.0,0.0,0.0,0.0,0.0,0.0,0.0,0.0,-0.0,0.0,-0.0,0.0,0.0,0.0,0.0,0.0,0.0,0.0,0.0,0.0,1.6992968002736452e-05,-0.0067408128852255575,-9.810476097898295,0.0,0.0,0.0,0.0,0.0,0.0,0.0,0.0,0.0
1710444411.3203068,264,1710444411,320152283,map,0.0004086122062682996,6.0238087248861995e-06,1.59757293936501e-08,0.9999999164998857,0.0,0.0,0.0,0.0,0.0,0.0,0.0,0.0,0.0,-0.0,0.0,-0.0,0.0,0.0,0.0,0.0,0.0,0.0,0.0,0.0,0.0,1.7033307288286377e-05,-0.006740660544870246,-9.810067712968724,0.0,0.0,0.0,0.0,0.0,0.0,0.0,0.0,0.0
1710444411.336907,265,1710444411,336791277,map,0.0004086122062682996,6.0238087248861995e-06,1.59757293936501e-08,0.9999999164998857,0.0,0.0,0.0,0.0,0.0,0.0,0.0,0.0,0.0,-0.0,0.0,-0.0,0.0,0.0,0.0,0.0,0.0,0.0,0.0,0.0,0.0,1.7017816569204157e-05,-0.006741303557593859,-9.810811839670498,0.0,0.0,0.0,0.0,0.0,0.0,0.0,0.0,0.0
1710444411.3535583,266,1710444411,353436708,map,0.0004086122062682996,6.0238087248861995e-06,1.59757293936501e-08,0.9999999164998857,0.0,0.0,0.0,0.0,0.0,0.0,0.0,0.0,0.0,-0.0,0.0,-0.0,0.0,0.0,0.0,0.0,0.0,0.0,0.0,0.0,0.0,1.7444277193524218e-05,-0.006741256491245277,-9.810556191635909,0.0,0.0,0.0,0.0,0.0,0.0,0.0,0.0,0.0
1710444411.3708036,267,1710444411,370569706,map,0.0004086122062682996,6.0238087248861995e-06,1.59757293936501e-08,0.9999999164998857,0.0,0.0,0.0,0.0,0.0,0.0,0.0,0.0,0.0,-0.0,0.0,-0.0,0.0,0.0,0.0,0.0,0.0,0.0,0.0,0.0,0.0,1.9316503034442527e-05,-0.006741332434049268,-9.810477960543357,0.0,0.0,0.0,0.0,0.0,0.0,0.0,0.0,0.0
1710444411.3870854,268,1710444411,386890411,map,0.0004086122062682996,6.0238087248861995e-06,1.59757293936501e-08,0.9999999164998857,0.0,0.0,0.0,0.0,0.0,0.0,0.0,0.0,0.0,-0.0,0.0,-0.0,0.0,0.0,0.0,0.0,0.0,0.0,0.0,0.0,0.0,1.7055048118611165e-05,-0.006741459535927804,-9.810476097898295,0.0,0.0,0.0,0.0,0.0,0.0,0.0,0.0,0.0
1710444411.4033463,269,1710444411,403238058,map,0.0004086122062682996,6.0238087248861995e-06,1.59757293936501e-08,0.9999999164998857,0.0,0.0,0.0,0.0,0.0,0.0,0.0,0.0,0.0,-0.0,0.0,-0.0,0.0,0.0,0.0,0.0,0.0,0.0,0.0,0.0,0.0,1.711093940755136e-05,-0.006741589138916651,-9.810476097898295,0.0,0.0,0.0,0.0,0.0,0.0,0.0,0.0,0.0
1710444411.4202118,270,1710444411,420112848,map,0.0004086122062682996,6.0238087248861995e-06,1.59757293936501e-08,0.9999999164998857,0.0,0.0,0.0,0.0,0.0,0.0,0.0,0.0,0.0,-0.0,0.0,-0.0,0.0,0.0,0.0,0.0,0.0,0.0,0.0,0.0,0.0,1.7073443180987853e-05,-0.006741718741905498,-9.810476097898295,0.0,0.0,0.0,0.0,0.0,0.0,0.0,0.0,0.0
1710444411.4372036,271,1710444411,437070131,map,0.0004086122062682996,6.0238087248861995e-06,1.59757293936501e-08,0.9999999164998857,0.0,0.0,0.0,0.0,0.0,0.0,0.0,0.0,0.0,-0.0,0.0,-0.0,0.0,0.0,0.0,0.0,0.0,0.0,0.0,0.0,0.0,1.7042657142066468e-05,-0.006756647641978665,-9.810475632237031,0.0,0.0,0.0,0.0,0.0,0.0,0.0,0.0,0.0
1710444411.4544377,272,1710444411,454313517,map,0.0004086122062682996,6.0238087248861995e-06,1.59757293936501e-08,0.9999999164998857,0.0,0.0,0.0,0.0,0.0,0.0,0.0,0.0,0.0,-0.0,0.0,-0.0,0.0,0.0,0.0,0.0,0.0,0.0,0.0,0.0,0.0,1.8029088476236106e-05,-0.0067417728568376824,-9.810067712968724,0.0,0.0,0.0,0.0,0.0,0.0,0.0,0.0,0.0
1710444411.4711485,273,1710444411,470974922,map,0.0004086122062682996,6.0238087248861995e-06,1.59757293936501e-08,0.9999999164998857,0.0,0.0,0.0,0.0,0.0,0.0,0.0,0.0,0.0,-0.0,0.0,-0.0,0.0,0.0,0.0,0.0,0.0,0.0,0.0,0.0,0.0,1.7072396906859144e-05,-0.006756782474561798,-9.810810908347968,0.0,0.0,0.0,0.0,0.0,0.0,0.0,0.0,0.0
1710444411.4863558,274,1710444411,486254930,map,0.0004086122062682996,6.0238087248861995e-06,1.59757293936501e-08,0.9999999164998857,0.0,0.0,0.0,0.0,0.0,0.0,0.0,0.0,0.0,-0.0,0.0,-0.0,0.0,0.0,0.0,0.0,0.0,0.0,0.0,0.0,0.0,1.718235960724401e-05,-0.0067420011399969846,-9.810556191635909,0.0,0.0,0.0,0.0,0.0,0.0,0.0,0.0,0.0
1710444411.503492,275,1710444411,503319263,map,0.0004086122062682996,6.0238087248861995e-06,1.59757293936501e-08,0.9999999164998857,0.0,0.0,0.0,0.0,0.0,0.0,0.0,0.0,0.0,-0.0,0.0,-0.0,0.0,0.0,0.0,0.0,0.0,0.0,0.0,0.0,0.0,1.711864968404656e-05,-0.006756442550933156,-9.810477494882091,0.0,0.0,0.0,0.0,0.0,0.0,0.0,0.0,0.0
1710444411.5200088,276,1710444411,519872189,map,0.0004086122062682996,6.0238087248861995e-06,1.59757293936501e-08,0.9999999164998857,0.0,0.0,0.0,0.0,0.0,0.0,0.0,0.0,0.0,-0.0,0.0,-0.0,0.0,0.0,0.0,0.0,0.0,0.0,0.0,0.0,0.0,1.7204596041103446e-05,-0.006741836521463783,-9.810476097898295,0.0,0.0,0.0,0.0,0.0,0.0,0.0,0.0,0.0
1710444411.5367558,277,1710444411,536619902,map,0.0004086122062682996,6.0238087248861995e-06,1.59757293936501e-08,0.9999999164998857,0.0,0.0,0.0,0.0,0.0,0.0,0.0,0.0,0.0,-0.0,0.0,-0.0,0.0,0.0,0.0,0.0,0.0,0.0,0.0,0.0,0.0,1.803838948020543e-05,-0.006756332047332139,-9.810475632237031,0.0,0.0,0.0,0.0,0.0,0.0,0.0,0.0,0.0
1710444411.5534296,278,1710444411,553256035,map,0.0004086122062682996,6.0238087248861995e-06,1.59757293936501e-08,0.9999999164998857,0.0,0.0,0.0,0.0,0.0,0.0,0.0,0.0,0.0,-0.0,0.0,-0.0,0.0,0.0,0.0,0.0,0.0,0.0,0.0,0.0,0.0,1.8911893374566062e-05,-0.0067417276094784186,-9.810476097898295,0.0,0.0,0.0,0.0,0.0,0.0,0.0,0.0,0.0
1710444411.5698717,279,1710444411,569776297,map,0.0004086122062682996,6.0238087248861995e-06,1.59757293936501e-08,0.9999999164998857,0.0,0.0,0.0,0.0,0.0,0.0,0.0,0.0,0.0,-0.0,0.0,-0.0,0.0,0.0,0.0,0.0,0.0,0.0,0.0,0.0,0.0,1.7209419737871725e-05,-0.006756224499588763,-9.810475166575765,0.0,0.0,0.0,0.0,0.0,0.0,0.0,0.0,0.0
1710444411.5865562,280,1710444411,586387396,map,0.0004086122062682996,6.0238087248861995e-06,1.59757293936501e-08,0.9999999164998857,0.0,0.0,0.0,0.0,0.0,0.0,0.0,0.0,0.0,-0.0,0.0,-0.0,0.0,0.0,0.0,0.0,0.0,0.0,0.0,0.0,0.0,1.725969241039577e-05,-0.006741626200823987,-9.810476097898295,0.0,0.0,0.0,0.0,0.0,0.0,0.0,0.0,0.0
1710444411.6029809,281,1710444411,602863312,map,0.0004086122062682996,6.0238087248861995e-06,1.59757293936501e-08,0.9999999164998857,0.0,0.0,0.0,0.0,0.0,0.0,0.0,0.0,0.0,-0.0,0.0,-0.0,0.0,0.0,0.0,0.0,0.0,0.0,0.0,0.0,0.0,1.715308524792115e-05,-0.006755796354978239,-9.810001589069067,0.0,0.0,0.0,0.0,0.0,0.0,0.0,0.0,0.0
1710444411.6205127,282,1710444411,620364428,map,0.0004086122062682996,6.0238087248861995e-06,1.59757293936501e-08,0.9999999164998857,0.0,0.0,0.0,0.0,0.0,0.0,0.0,0.0,0.0,-0.0,0.0,-0.0,0.0,0.0,0.0,0.0,0.0,0.0,0.0,0.0,0.0,1.7212541684868686e-05,-0.006741850846004656,-9.810945484453608,0.0,0.0,0.0,0.0,0.0,0.0,0.0,0.0,0.0
1710444411.6361833,283,1710444411,636074305,map,0.0004086122062682996,6.0238087248861995e-06,1.59757293936501e-08,0.9999999164998857,0.0,0.0,0.0,0.0,0.0,0.0,0.0,0.0,0.0,-0.0,0.0,-0.0,0.0,0.0,0.0,0.0,0.0,0.0,0.0,0.0,0.0,1.7262612740901033e-05,-0.006756034187831456,-9.810489136413722,0.0,0.0,0.0,0.0,0.0,0.0,0.0,0.0,0.0
1710444411.6534822,284,1710444411,653372765,map,0.0004086122062682996,6.0238087248861995e-06,1.59757293936501e-08,0.9999999164998857,0.0,0.0,0.0,0.0,0.0,0.0,0.0,0.0,0.0,-0.0,0.0,-0.0,0.0,0.0,0.0,0.0,0.0,0.0,0.0,0.0,0.0,1.8084446858149792e-05,-0.006741426339372766,-9.810476097898295,0.0,0.0,0.0,0.0,0.0,0.0,0.0,0.0,0.0
1710444411.6699536,285,1710444411,669842720,map,0.0004086122062682996,6.0238087248861995e-06,1.59757293936501e-08,0.9999999164998857,0.0,0.0,0.0,0.0,0.0,0.0,0.0,0.0,0.0,-0.0,0.0,-0.0,0.0,0.0,0.0,0.0,0.0,0.0,0.0,0.0,0.0,1.7302482180089257e-05,-0.006748522444072627,-9.810476097898295,0.0,0.0,0.0,0.0,0.0,0.0,0.0,0.0,0.0
1710444411.686506,286,1710444411,686308622,map,0.0004086122062682996,6.0238087248861995e-06,1.59757293936501e-08,0.9999999164998857,0.0,0.0,0.0,0.0,0.0,0.0,0.0,0.0,0.0,-0.0,0.0,-0.0,0.0,0.0,0.0,0.0,0.0,0.0,0.0,0.0,0.0,1.727685468118447e-05,-0.006748682060385207,-9.810476097898295,0.0,0.0,0.0,0.0,0.0,0.0,0.0,0.0,0.0
1710444411.7058833,287,1710444411,705734968,map,0.0004086122062682996,6.0238087248861995e-06,1.59757293936501e-08,0.9999999164998857,0.0,0.0,0.0,0.0,0.0,0.0,0.0,0.0,0.0,-0.0,0.0,-0.0,0.0,0.0,0.0,0.0,0.0,0.0,0.0,0.0,0.0,1.7285104081954818e-05,-0.006741238756099435,-9.810476097898295,0.0,0.0,0.0,0.0,0.0,0.0,0.0,0.0,0.0
1710444411.7202616,288,1710444411,720079184,map,0.0004086122062682996,6.0238087248861995e-06,1.59757293936501e-08,0.9999999164998857,0.0,0.0,0.0,0.0,0.0,0.0,0.0,0.0,0.0,-0.0,0.0,-0.0,0.0,0.0,0.0,0.0,0.0,0.0,0.0,0.0,0.0,1.73025514580027e-05,-0.006755947103717898,-9.810475166575765,0.0,0.0,0.0,0.0,0.0,0.0,0.0,0.0,0.0
1710444411.737035,289,1710444411,736881018,map,0.00041026625939649355,5.736465570328649e-06,-2.3774493639437674e-07,0.9999999158243129,0.0,0.0,0.0,0.0,0.0,0.0,0.0,0.0,0.0,0.00033081094340164225,-5.7489449147466925e-05,-5.071855870368238e-05,0.0,0.0,0.0,0.0,0.0,0.0,0.0,0.0,0.0,1.507193853633051e-06,-0.007917641675257147,-9.810000657746537,0.0,0.0,0.0,0.0,0.0,0.0,0.0,0.0,0.0
1710444411.7542021,290,1710444411,754101992,map,0.0004139840741572979,5.372904704857453e-06,-5.878499310269926e-07,0.9999999142939827,0.0,0.0,0.0,0.0,0.0,0.0,0.0,0.0,0.0,0.0007435634086468538,-7.274097589086597e-05,-6.998662589353056e-05,0.0,0.0,0.0,0.0,0.0,0.0,0.0,0.0,0.0,0.0023387713693955483,-0.009382931020796433,-9.811352006738119,0.0,0.0,0.0,0.0,0.0,0.0,0.0,0.0,0.0
1710444411.7705288,291,1710444411,770263910,map,0.0004201755057553454,5.549278911219914e-06,-5.740245295890254e-07,0.9999999117107063,0.0,0.0,0.0,0.0,0.0,0.0,0.0,0.0,0.0,0.0012382863912967859,3.5276730720801026e-05,2.7569113053559716e-06,0.0,0.0,0.0,0.0,0.0,0.0,0.0,0.0,0.0,0.0005922064477295958,-0.012041911642084603,-9.810960385614093,0.0,0.0,0.0,0.0,0.0,0.0,0.0,0.0,0.0
1710444411.7866166,292,1710444411,786473989,map,0.00042923171068422325,5.5438709099263125e-06,-6.025921337151457e-07,0.9999999078645162,0.0,0.0,0.0,0.0,0.0,0.0,0.0,0.0,0.0,0.0018112411813980193,-1.0830085268933738e-06,-5.703005411287243e-06,0.0,0.0,0.0,0.0,0.0,0.0,0.0,0.0,0.0,-0.0036566884173526923,-0.015117948997140258,-9.810999035499105,0.0,0.0,0.0,0.0,0.0,0.0,0.0,0.0,0.0
1710444411.8038528,293,1710444411,803732872,map,0.0004406795265692319,5.610984775583303e-06,-6.274038303269056e-07,0.9999999028848344,0.0,0.0,0.0,0.0,0.0,0.0,0.0,0.0,0.0,0.0022895634133438727,1.3421970365908156e-05,-4.955561555053916e-06,0.0,0.0,0.0,0.0,0.0,0.0,0.0,0.0,0.0,0.000871291804399022,-0.020738106665679077,-9.810501243606616,0.0,0.0,0.0,0.0,0.0,0.0,0.0,0.0,0.0
1710444411.820861,294,1710444411,820628405,map,0.0004542209551581284,5.6677299393089886e-06,-6.540557749687081e-07,0.9999998968253812,0.0,0.0,0.0,0.0,0.0,0.0,0.0,0.0,0.0,0.002708286011992046,1.13483165943578e-05,-5.320347980413745e-06,0.0,0.0,0.0,0.0,0.0,0.0,0.0,0.0,0.0,-0.0003498695318259375,-0.025657326350548636,-9.811765048280343,0.0,0.0,0.0,0.0,0.0,0.0,0.0,0.0,0.0
1710444411.8371134,295,1710444411,836995602,map,0.0004710741660699521,5.728915700580459e-06,-6.788925939302366e-07,0.9999998890279183,0.0,0.0,0.0,0.0,0.0,0.0,0.0,0.0,0.0,0.003370642563566805,1.2237024648271735e-05,-4.954025015052844e-06,0.0,0.0,0.0,0.0,0.0,0.0,0.0,0.0,0.0,0.00010935763597061106,-0.030682482609006936,-9.811295196063766,0.0,0.0,0.0,0.0,0.0,0.0,0.0,0.0,0.0
1710444411.8536794,296,1710444411,853561640,map,0.0004905984677267153,5.799084313190556e-06,-7.027997641518786e-07,0.9999998796395029,0.0,0.0,0.0,0.0,0.0,0.0,0.0,0.0,0.0,0.0039048608009977065,1.40340372432961e-05,-4.765949102658826e-06,0.0,0.0,0.0,0.0,0.0,0.0,0.0,0.0,0.0,-1.925922174634152e-05,-0.04108817834477211,-9.810979943387231,0.0,0.0,0.0,0.0,0.0,0.0,0.0,0.0,0.0
1710444411.86968,297,1710444411,869594574,map,0.0005118884695910904,5.875065374932885e-06,-7.261147276320003e-07,0.999999868967567,0.0,0.0,0.0,0.0,0.0,0.0,0.0,0.0,0.0,0.004258000924542954,1.5196828849900642e-05,-4.646079911765954e-06,0.0,0.0,0.0,0.0,0.0,0.0,0.0,0.0,0.0,-1.9179509513316402e-05,-0.048468673838917294,-9.810806251735317,0.0,0.0,0.0,0.0,0.0,0.0,0.0,0.0,0.0
1710444411.886922,298,1710444411,886745453,map,0.0005341135795253494,5.961581808515949e-06,-7.481381800963908e-07,0.9999998573432819,0.0,0.0,0.0,0.0,0.0,0.0,0.0,0.0,0.0,0.0044450226085365275,1.7304173478168024e-05,-4.387818750319535e-06,0.0,0.0,0.0,0.0,0.0,0.0,0.0,0.0,0.0,-1.2332356771780723e-05,-0.05762599720632345,-9.811657946189348,0.0,0.0,0.0,0.0,0.0,0.0,0.0,0.0,0.0
1710444411.9028707,299,1710444411,902777195,map,0.0005559250847311802,6.057695065140796e-06,-7.685721547252686e-07,0.999999845454995,0.0,0.0,0.0,0.0,0.0,0.0,0.0,0.0,0.0,0.004362301699513519,1.9223654748156702e-05,-4.0714762840373294e-06,0.0,0.0,0.0,0.0,0.0,0.0,0.0,0.0,0.0,-3.0014727054786723e-06,-0.06735076520514999,-9.810763410898918,0.0,0.0,0.0,0.0,0.0,0.0,0.0,0.0,0.0
1710444411.9203355,300,1710444411,920074224,map,0.000576414209539957,6.166304037836009e-06,-7.873864551275228e-07,0.9999998338539942,0.0,0.0,0.0,0.0,0.0,0.0,0.0,0.0,0.0,0.004097825625108063,2.17227860018467e-05,-3.7505586803147225e-06,0.0,0.0,0.0,0.0,0.0,0.0,0.0,0.0,0.0,-2.6667686791166012e-05,-0.07663986252515298,-9.810721035723786,0.0,0.0,0.0,0.0,0.0,0.0,0.0,0.0,0.0
1710444411.936457,301,1710444411,936297417,map,0.0005950815985977395,6.289596978588749e-06,-8.036072944630675e-07,0.9999998229188275,0.0,0.0,0.0,0.0,0.0,0.0,0.0,0.0,0.0,0.0037334784530956826,2.4659606844890435e-05,-3.2358211825543127e-06,0.0,0.0,0.0,0.0,0.0,0.0,0.0,0.0,0.0,-2.2269030894071538e-05,-0.08565622877239466,-9.810704737579504,0.0,0.0,0.0,0.0,0.0,0.0,0.0,0.0,0.0
1710444411.953304,302,1710444411,953180790,map,0.0006111562203378046,6.428368527592219e-06,-8.169366703842328e-07,0.9999998132230241,0.0,0.0,0.0,0.0,0.0,0.0,0.0,0.0,0.0,0.00321492492764098,2.7755271408860624e-05,-2.6626179269725617e-06,0.0,0.0,0.0,0.0,0.0,0.0,0.0,0.0,0.0,-4.1480225726916565e-05,-0.09420148679093614,-9.810623246858096,0.0,0.0,0.0,0.0,0.0,0.0,0.0,0.0,0.0
1710444411.969721,303,1710444411,969580889,map,0.0006243512305944744,6.527028574151757e-06,-8.089422536416152e-07,0.9999998050711233,0.0,0.0,0.0,0.0,0.0,0.0,0.0,0.0,0.0,0.002639002528366468,1.9735170332429903e-05,1.6035264497894693e-06,0.0,0.0,0.0,0.0,0.0,0.0,0.0,0.0,0.0,-1.2202265284826261e-05,-0.10128614731950823,-9.809322189283154,0.0,0.0,0.0,0.0,0.0,0.0,0.0,0.0,0.0
1710444411.9865818,304,1710444411,986381292,map,0.0006345510718009803,6.591601748968416e-06,-7.917055042206789e-07,0.9999997986504103,0.0,0.0,0.0,0.0,0.0,0.0,0.0,0.0,0.0,0.0020399686122726983,1.2918478616485241e-05,3.4524680698964443e-06,0.0,0.0,0.0,0.0,0.0,0.0,0.0,0.0,0.0,0.000324310056726728,-0.10556852292828758,-9.809637907620955,0.0,0.0,0.0,0.0,0.0,0.0,0.0,0.0,0.0
1710444412.003806,305,1710444412,3711462,map,0.0006419830231762974,6.66897197973089e-06,-7.672284961384193e-07,0.9999997939063459,0.0,0.0,0.0,0.0,0.0,0.0,0.0,0.0,0.0,0.001486390532965008,1.5478368838497288e-05,4.895263465380695e-06,0.0,0.0,0.0,0.0,0.0,0.0,0.0,0.0,0.0,0.0003105753053767014,-0.1050656451416687,-9.808911941708523,0.0,0.0,0.0,0.0,0.0,0.0,0.0,0.0,0.0
1710444412.0202026,306,1710444412,20045519,map,0.0006474890001164743,6.766151922480579e-06,-7.351050259365592e-07,0.9999997903558149,0.0,0.0,0.0,0.0,0.0,0.0,0.0,0.0,0.0,0.0011011955585857318,1.944099403861828e-05,6.41945139638483e-06,0.0,0.0,0.0,0.0,0.0,0.0,0.0,0.0,0.0,1.9650919957144066e-05,-0.10883648821265819,-9.8095918071557,0.0,0.0,0.0,0.0,0.0,0.0,0.0,0.0,0.0
1710444412.0376565,307,1710444412,37506104,map,0.0006521158088393709,6.846044192533713e-06,-6.871423078014434e-07,0.9999997873487931,0.0,0.0,0.0,0.0,0.0,0.0,0.0,0.0,0.0,0.0009253618625717966,1.598539039836944e-05,9.588382477592641e-06,0.0,0.0,0.0,0.0,0.0,0.0,0.0,0.0,0.0,5.315395071422752e-05,-0.11729672576102147,-9.808831847970911,0.0,0.0,0.0,0.0,0.0,0.0,0.0,0.0,0.0
1710444412.0547428,308,1710444412,54567099,map,0.0006566234082795576,6.917743734040144e-06,-6.323588343195874e-07,0.9999997843986991,0.0,0.0,0.0,0.0,0.0,0.0,0.0,0.0,0.0,0.0009015199954423366,1.434772317136976e-05,1.0953447851398016e-05,0.0,0.0,0.0,0.0,0.0,0.0,0.0,0.0,0.0,0.0003465349016346966,-0.12030857916852689,-9.809141512712262,0.0,0.0,0.0,0.0,0.0,0.0,0.0,0.0,0.0
1710444412.0704021,309,1710444412,70295334,map,0.0006617158780121115,7.008074271605123e-06,-5.66709456981932e-07,0.9999997810413073,0.0,0.0,0.0,0.0,0.0,0.0,0.0,0.0,0.0,0.0010184940643954098,1.8075440538979383e-05,1.3124963214650422e-05,0.0,0.0,0.0,0.0,0.0,0.0,0.0,0.0,0.0,0.0003108397516068224,-0.11780881400004772,-9.808769449361375,0.0,0.0,0.0,0.0,0.0,0.0,0.0,0.0,0.0
1710444412.0868287,310,1710444412,86630106,map,0.0006681718431824018,7.09203057617603e-06,-4.80148948891484e-07,0.9999997767479054,0.0,0.0,0.0,0.0,0.0,0.0,0.0,0.0,0.0,0.0012911931872569425,1.6803562431756968e-05,1.7309926590689213e-05,0.0,0.0,0.0,0.0,0.0,0.0,0.0,0.0,0.0,0.00010734169309824885,-0.1208081145622755,-9.808913804353583,0.0,0.0,0.0,0.0,0.0,0.0,0.0,0.0,0.0
1710444412.1041176,311,1710444412,103871346,map,0.0006759204440624393,7.166978819596646e-06,-3.868870794467623e-07,0.999999771539993,0.0,0.0,0.0,0.0,0.0,0.0,0.0,0.0,0.0,0.0015497203851210885,1.5003004349030937e-05,1.865322797458257e-05,0.0,0.0,0.0,0.0,0.0,0.0,0.0,0.0,0.0,0.0003192349060016352,-0.12270782243986712,-9.80975059764713,0.0,0.0,0.0,0.0,0.0,0.0,0.0,0.0,0.0
1710444412.1202812,312,1710444412,120133400,map,0.0006856285058571146,7.266206491072345e-06,-2.7875194193541864e-07,0.9999997649303106,0.0,0.0,0.0,0.0,0.0,0.0,0.0,0.0,0.0,0.0019416126440825706,1.9861118530717683e-05,2.1627330730241647e-05,0.0,0.0,0.0,0.0,0.0,0.0,0.0,0.0,0.0,0.00028336278820839813,-0.12094825131825794,-9.808840229873683,0.0,0.0,0.0,0.0,0.0,0.0,0.0,0.0,0.0
1710444412.1367002,313,1710444412,136573315,map,0.0006973892832644535,7.327750555928721e-06,-1.4526119096212868e-07,0.9999997567972058,0.0,0.0,0.0,0.0,0.0,0.0,0.0,0.0,0.0,0.002352155844787683,1.232809666981804e-05,2.670665045351337e-05,0.0,0.0,0.0,0.0,0.0,0.0,0.0,0.0,0.0,0.00013916239588059674,-0.12641554021508894,-9.810664225049432,0.0,0.0,0.0,0.0,0.0,0.0,0.0,0.0,0.0
1710444412.1533668,314,1710444412,153170586,map,0.0007109381580393695,7.433461969480007e-06,-6.709516857259731e-10,0.9999997472558076,0.0,0.0,0.0,0.0,0.0,0.0,0.0,0.0,0.0,0.002709775408819145,2.1163244187893874e-05,2.892286596314009e-05,0.0,0.0,0.0,0.0,0.0,0.0,0.0,0.0,0.0,0.0005310679430435882,-0.12666856253859896,-9.80942230645517,0.0,0.0,0.0,0.0,0.0,0.0,0.0,0.0,0.0
1710444412.1701248,315,1710444412,169904470,map,0.0007258542132914518,7.496107887045456e-06,1.6991771741280985e-07,0.9999997365396857,0.0,0.0,0.0,0.0,0.0,0.0,0.0,0.0,0.0,0.002983211564474198,1.2553962976890438e-05,3.41308060546112e-05,0.0,0.0,0.0,0.0,0.0,0.0,0.0,0.0,0.0,1.5711388776470296e-05,-0.13168881434711088,-9.811155497684208,0.0,0.0,0.0,0.0,0.0,0.0,0.0,0.0,0.0
1710444412.1870701,316,1710444412,186940193,map,0.0007421672511848926,7.610236197257871e-06,3.547907644267936e-07,0.999999724564827,0.0,0.0,0.0,0.0,0.0,0.0,0.0,0.0,0.0,0.003262608180152785,2.2852561076793286e-05,3.698211603399859e-05,0.0,0.0,0.0,0.0,0.0,0.0,0.0,0.0,0.0,0.0005374746650031039,-0.13374994797690554,-9.810708462869625,0.0,0.0,0.0,0.0,0.0,0.0,0.0,0.0,0.0
1710444412.2041886,317,1710444412,204083204,map,0.0007593855787790955,7.677725611500011e-06,5.711307659105388e-07,0.999999711637093,0.0,0.0,0.0,0.0,0.0,0.0,0.0,0.0,0.0,0.0034436661619935494,1.3529534398683717e-05,4.3283945768338e-05,0.0,0.0,0.0,0.0,0.0,0.0,0.0,0.0,0.0,5.263300212139402e-05,-0.14097208044211046,-9.810745250109576,0.0,0.0,0.0,0.0,0.0,0.0,0.0,0.0,0.0
1710444412.2198095,318,1710444412,219615936,map,0.0007766709166497256,7.772906863920083e-06,8.151366044176347e-07,0.9999996983605569,0.0,0.0,0.0,0.0,0.0,0.0,0.0,0.0,0.0,0.0034570682253455944,1.907219359740046e-05,4.881291204558381e-05,0.0,0.0,0.0,0.0,0.0,0.0,0.0,0.0,0.0,0.000596994155510017,-0.14376165244556566,-9.810862131087138,0.0,0.0,0.0,0.0,0.0,0.0,0.0,0.0,0.0
1710444412.2369215,319,1710444412,236696243,map,0.0007934384387767217,7.87079659003272e-06,1.0693649300763796e-06,0.9999996851961259,0.0,0.0,0.0,0.0,0.0,0.0,0.0,0.0,0.0,0.0033535050746456457,1.9615569302473603e-05,5.0856183900350964e-05,0.0,0.0,0.0,0.0,0.0,0.0,0.0,0.0,0.0,0.00016190818938139885,-0.149045410322517,-9.811108000235158,0.0,0.0,0.0,0.0,0.0,0.0,0.0,0.0,0.0
1710444412.2530432,320,1710444412,252945423,map,0.0008088723071418117,7.939276898359567e-06,1.361597055803904e-06,0.9999996728302989,0.0,0.0,0.0,0.0,0.0,0.0,0.0,0.0,0.0,0.003086774214326843,1.3740051832347707e-05,5.845962572174996e-05,0.0,0.0,0.0,0.0,0.0,0.0,0.0,0.0,0.0,0.0003244959773301362,-0.1530943611713156,-9.811150375410291,0.0,0.0,0.0,0.0,0.0,0.0,0.0,0.0,0.0
1710444412.2708519,321,1710444412,270688057,map,0.0008228458620950835,8.035918807195407e-06,1.6898455078355609e-06,0.9999996614285706,0.0,0.0,0.0,0.0,0.0,0.0,0.0,0.0,0.0,0.0027947114196539653,1.9378607943217767e-05,6.565595504263302e-05,0.0,0.0,0.0,0.0,0.0,0.0,0.0,0.0,0.0,0.0005261092147402199,-0.15606912038442375,-9.810647461243885,0.0,0.0,0.0,0.0,0.0,0.0,0.0,0.0,0.0
1710444412.287042,322,1710444412,286844254,map,0.0008354298842451024,8.136762587245158e-06,2.026144574128116e-06,0.9999996509932373,0.0,0.0,0.0,0.0,0.0,0.0,0.0,0.0,0.0,0.002516804782073594,2.0220703844173424e-05,6.726316861921361e-05,0.0,0.0,0.0,0.0,0.0,0.0,0.0,0.0,0.0,0.0002188038020091792,-0.16095671250622823,-9.811025112529956,0.0,0.0,0.0,0.0,0.0,0.0,0.0,0.0,0.0
1710444412.3034856,323,1710444412,303295612,map,0.0008462928231176511,8.203258399007233e-06,2.4108135205455487e-06,0.999999641857612,0.0,0.0,0.0,0.0,0.0,0.0,0.0,0.0,0.0,0.0021725879385541477,1.335987918495959e-05,7.694018832532969e-05,0.0,0.0,0.0,0.0,0.0,0.0,0.0,0.0,0.0,0.00031974140215590977,-0.16321160612153524,-9.810201357751835,0.0,0.0,0.0,0.0,0.0,0.0,0.0,0.0,0.0
1710444412.3205302,324,1710444412,320386648,map,0.0008556061440728765,8.290572631916323e-06,2.827532483906831e-06,0.9999996339306318,0.0,0.0,0.0,0.0,0.0,0.0,0.0,0.0,0.0,0.0018626642167864904,1.7529672261788152e-05,8.334410462349308e-05,0.0,0.0,0.0,0.0,0.0,0.0,0.0,0.0,0.0,0.0005739109608071649,-0.16398988390009644,-9.809634647992098,0.0,0.0,0.0,0.0,0.0,0.0,0.0,0.0,0.0
1710444412.3366692,325,1710444412,336459160,map,0.0008639767630868079,8.372025018640544e-06,3.280028470905302e-06,0.9999996267315822,0.0,0.0,0.0,0.0,0.0,0.0,0.0,0.0,0.0,0.001674123710237881,1.6363938881096484e-05,9.04989725811788e-05,0.0,0.0,0.0,0.0,0.0,0.0,0.0,0.0,0.0,0.0003073646790978155,-0.16418587204094093,-9.810101240579819,0.0,0.0,0.0,0.0,0.0,0.0,0.0,0.0,0.0
1710444412.3533516,326,1710444412,353231192,map,0.00087156150022643,8.453065990959864e-06,3.7706480766933145e-06,0.9999996201473675,0.0,0.0,0.0,0.0,0.0,0.0,0.0,0.0,0.0,0.0015169472231082368,1.6288744828978886e-05,9.81224617257496e-05,0.0,0.0,0.0,0.0,0.0,0.0,0.0,0.0,0.0,0.0004228527869071841,-0.16529925493833772,-9.81004675821179,0.0,0.0,0.0,0.0,0.0,0.0,0.0,0.0,0.0
1710444412.370395,327,1710444412,370273590,map,0.0008789040420284333,8.536580290187773e-06,4.3014435013754e-06,0.9999996137180801,0.0,0.0,0.0,0.0,0.0,0.0,0.0,0.0,0.0,0.0014685080799998224,1.679063077441525e-05,0.00010615678200560108,0.0,0.0,0.0,0.0,0.0,0.0,0.0,0.0,0.0,0.00043581086889863687,-0.16504147004604808,-9.808825794374462,0.0,0.0,0.0,0.0,0.0,0.0,0.0,0.0,0.0
1710444412.3868124,328,1710444412,386625290,map,0.0008867271457702848,8.62264298841597e-06,4.875068160315106e-06,0.9999996068083491,0.0,0.0,0.0,0.0,0.0,0.0,0.0,0.0,0.0,0.0015646204433522291,1.7307544362542238e-05,0.00011472298636094063,0.0,0.0,0.0,0.0,0.0,0.0,0.0,0.0,0.0,0.0004523327133391616,-0.1652821359751267,-9.810033719696365,0.0,0.0,0.0,0.0,0.0,0.0,0.0,0.0,0.0
1710444412.4029512,329,1710444412,402846813,map,0.0008951575245468873,8.709501097693654e-06,5.493024636421079e-06,0.9999995992934085,0.0,0.0,0.0,0.0,0.0,0.0,0.0,0.0,0.0,0.0016860754333363724,1.747404192008483e-05,0.00012359024118555897,0.0,0.0,0.0,0.0,0.0,0.0,0.0,0.0,0.0,0.00039817948290235533,-0.16545045797057836,-9.809191804128902,0.0,0.0,0.0,0.0,0.0,0.0,0.0,0.0,0.0
1710444412.4196553,330,1710444412,419433832,map,0.0009045563711150526,8.799162131267054e-06,6.157848069232572e-06,0.9999995908311299,0.0,0.0,0.0,0.0,0.0,0.0,0.0,0.0,0.0,0.001879769003890769,1.804216270637674e-05,0.00013296479271269348,0.0,0.0,0.0,0.0,0.0,0.0,0.0,0.0,0.0,0.0004831312364958233,-0.1655503886961892,-9.809595066784556,0.0,0.0,0.0,0.0,0.0,0.0,0.0,0.0,0.0
1710444412.436635,331,1710444412,436503172,map,0.0009161643660920429,8.898293322499067e-06,6.8746335097199404e-06,0.999999580258119,0.0,0.0,0.0,0.0,0.0,0.0,0.0,0.0,0.0,0.002321598804671053,1.9943291369648276e-05,0.00014335930514552259,0.0,0.0,0.0,0.0,0.0,0.0,0.0,0.0,0.0,0.0004781758619540085,-0.16590617027369822,-9.80886770388833,0.0,0.0,0.0,0.0,0.0,0.0,0.0,0.0,0.0
1710444412.4529555,332,1710444412,452836514,map,0.0009309687124560124,9.0031775742128e-06,7.6467434743161e-06,0.9999995665787694,0.0,0.0,0.0,0.0,0.0,0.0,0.0,0.0,0.0,0.0029608692904321563,2.1100273137817815e-05,0.00015442876299162482,0.0,0.0,0.0,0.0,0.0,0.0,0.0,0.0,0.0,0.0004475497661948439,-0.16832982620066392,-9.809613693235164,0.0,0.0,0.0,0.0,0.0,0.0,0.0,0.0,0.0
1710444412.4698775,333,1710444412,469685793,map,0.0009511597686697986,9.121670923184959e-06,8.479972372852423e-06,0.9999995475698875,0.0,0.0,0.0,0.0,0.0,0.0,0.0,0.0,0.0,0.004038211693143111,2.382632163006787e-05,0.00016665954951878908,0.0,0.0,0.0,0.0,0.0,0.0,0.0,0.0,0.0,0.0005881020972874067,-0.171723836530777,-9.81011847004663,0.0,0.0,0.0,0.0,0.0,0.0,0.0,0.0,0.0
1710444412.4864118,334,1710444412,486212254,map,0.00097885355125534,9.282283805302246e-06,9.408038727567826e-06,0.9999995208354119,0.0,0.0,0.0,0.0,0.0,0.0,0.0,0.0,0.0,0.005538757647025373,3.225733091067385e-05,0.00018563230806300604,0.0,0.0,0.0,0.0,0.0,0.0,0.0,0.0,0.0,0.0005498044353994493,-0.18035131559493756,-9.809851646141677,0.0,0.0,0.0,0.0,0.0,0.0,0.0,0.0,0.0
1710444412.5031476,335,1710444412,502980709,map,0.0010134838752229917,9.43474536705811e-06,1.0436209105009093e-05,0.999999486326121,0.0,0.0,0.0,0.0,0.0,0.0,0.0,0.0,0.0,0.0069260665787171,3.063560911430515e-05,0.00020566742328149303,0.0,0.0,0.0,0.0,0.0,0.0,0.0,0.0,0.0,0.0005354874191741192,-0.1920318245277758,-9.811049326915745,0.0,0.0,0.0,0.0,0.0,0.0,0.0,0.0,0.0
1710444412.5196505,336,1710444412,519405365,map,0.0010550022541111017,9.615505784265973e-06,1.1543903838109809e-05,0.9999994433721072,0.0,0.0,0.0,0.0,0.0,0.0,0.0,0.0,0.0,0.008303678468183008,3.6299212816712745e-05,0.00022157911909580214,0.0,0.0,0.0,0.0,0.0,0.0,0.0,0.0,0.0,0.0008913085597007937,-0.20718319517988204,-9.811046998609418,0.0,0.0,0.0,0.0,0.0,0.0,0.0,0.0,0.0
1710444412.5368936,337,1710444412,536777735,map,0.001102637552075116,9.746694113612397e-06,1.2780670357406657e-05,0.9999993919658577,0.0,0.0,0.0,0.0,0.0,0.0,0.0,0.0,0.0,0.009527063031926361,2.6400514724345074e-05,0.00024741595424530367,0.0,0.0,0.0,0.0,0.0,0.0,0.0,0.0,0.0,0.000768893165032135,-0.2256665349839667,-9.811317547804494,0.0,0.0,0.0,0.0,0.0,0.0,0.0,0.0,0.0
1710444412.5536125,338,1710444412,553505659,map,0.001153595802914494,9.914320382394143e-06,1.4127165533705128e-05,0.9999993344592051,0.0,0.0,0.0,0.0,0.0,0.0,0.0,0.0,0.0,0.010191654415528575,3.370575472675878e-05,0.0002693596699671604,0.0,0.0,0.0,0.0,0.0,0.0,0.0,0.0,0.0,0.0013796294153510039,-0.23806258247297563,-9.810926392341734,0.0,0.0,0.0,0.0,0.0,0.0,0.0,0.0,0.0
1710444412.5703979,339,1710444412,570262671,map,0.0012061559953058098,1.0077888131835719e-05,1.5609049873108135e-05,0.9999992724209897,0.0,0.0,0.0,0.0,0.0,0.0,0.0,0.0,0.0,0.010512043275305753,3.2922626012658135e-05,0.00029644159740726617,0.0,0.0,0.0,0.0,0.0,0.0,0.0,0.0,0.0,0.0009708606577171604,-0.2517606406873277,-9.811736177281901,0.0,0.0,0.0,0.0,0.0,0.0,0.0,0.0,0.0
1710444412.5866544,340,1710444412,586473465,map,0.0012591667996034559,1.0256168450845259e-05,1.7239509167197468e-05,0.9999992070479763,0.0,0.0,0.0,0.0,0.0,0.0,0.0,0.0,0.0,0.01060216613230315,3.590128734901565e-05,0.00032615376355973126,0.0,0.0,0.0,0.0,0.0,0.0,0.0,0.0,0.0,0.001233433080151545,-0.27043624766223495,-9.813099167805111,0.0,0.0,0.0,0.0,0.0,0.0,0.0,0.0,0.0
1710444412.603061,341,1710444412,602965355,map,0.0013098232919838235,1.043080320692094e-05,1.9030218712201655e-05,0.9999991419456283,0.0,0.0,0.0,0.0,0.0,0.0,0.0,0.0,0.0,0.010131303707610315,3.5221504058211356e-05,0.000358199995185416,0.0,0.0,0.0,0.0,0.0,0.0,0.0,0.0,0.0,0.0013149970869340832,-0.2896678496403058,-9.813558775473854,0.0,0.0,0.0,0.0,0.0,0.0,0.0,0.0,0.0
1710444412.6198456,342,1710444412,619703531,map,0.0013567992001738902,1.060956436442107e-05,2.0989937875072196e-05,0.9999990792709712,0.0,0.0,0.0,0.0,0.0,0.0,0.0,0.0,0.0,0.00939518651977402,3.610533065819469e-05,0.0003919932093438676,0.0,0.0,0.0,0.0,0.0,0.0,0.0,0.0,0.0,0.0014453214045211417,-0.30460757451889914,-9.812906849702587,0.0,0.0,0.0,0.0,0.0,0.0,0.0,0.0,0.0
1710444412.6362803,343,1710444412,636156321,map,0.00139987100828703,1.078872209567624e-05,2.3129302319118326e-05,0.9999990198544192,0.0,0.0,0.0,0.0,0.0,0.0,0.0,0.0,0.0,0.00861436595208262,3.624979308567097e-05,0.0004279139617473297,0.0,0.0,0.0,0.0,0.0,0.0,0.0,0.0,0.0,0.0014978991770464866,-0.32572176950407655,-9.813553653199937,0.0,0.0,0.0,0.0,0.0,0.0,0.0,0.0,0.0
1710444412.652908,344,1710444412,652780056,map,0.0014375560549377807,1.0956526668832404e-05,2.546399909765417e-05,0.9999989663315298,0.0,0.0,0.0,0.0,0.0,0.0,0.0,0.0,0.0,0.007537012588657667,3.4057924225550674e-05,0.0004669721962327341,0.0,0.0,0.0,0.0,0.0,0.0,0.0,0.0,0.0,0.0016390771196718892,-0.34189503471213695,-9.812030940862766,0.0,0.0,0.0,0.0,0.0,0.0,0.0,0.0,0.0
1710444412.669877,345,1710444412,669773579,map,0.0014701076607927194,1.1123543689753346e-05,2.800384898639321e-05,0.9999989189371741,0.0,0.0,0.0,0.0,0.0,0.0,0.0,0.0,0.0,0.006510323267731956,3.3984465991983145e-05,0.0005079918993072081,0.0,0.0,0.0,0.0,0.0,0.0,0.0,0.0,0.0,0.0017602445739821517,-0.3509613613199634,-9.811356197689506,0.0,0.0,0.0,0.0,0.0,0.0,0.0,0.0,0.0
1710444412.6865523,346,1710444412,686342955,map,0.001500807800608511,1.1301755705043064e-05,3.0774184970672406e-05,0.999998873249948,0.0,0.0,0.0,0.0,0.0,0.0,0.0,0.0,0.0,0.0061400294937809675,3.630207058718648e-05,0.0005540816402404537,0.0,0.0,0.0,0.0,0.0,0.0,0.0,0.0,0.0,0.001859379477555891,-0.36031540656302985,-9.810714982127339,0.0,0.0,0.0,0.0,0.0,0.0,0.0,0.0,0.0
1710444412.703332,347,1710444412,703130722,map,0.0015310944335243453,1.1474130584098204e-05,3.380304309153599e-05,0.9999988272370794,0.0,0.0,0.0,0.0,0.0,0.0,0.0,0.0,0.0,0.00605732767831121,3.5216125726220094e-05,0.0006057868766345682,0.0,0.0,0.0,0.0,0.0,0.0,0.0,0.0,0.0,0.0018478887230875074,-0.37185537310526795,-9.809333830814785,0.0,0.0,0.0,0.0,0.0,0.0,0.0,0.0,0.0
1710444412.7202463,348,1710444412,720031500,map,0.001564223362374787,1.1670168854300415e-05,3.7116112365405685e-05,0.9999987758449878,0.0,0.0,0.0,0.0,0.0,0.0,0.0,0.0,0.0,0.0066257873279175795,4.00202308441174e-05,0.0006626280941742519,0.0,0.0,0.0,0.0,0.0,0.0,0.0,0.0,0.0,0.0022551575748153943,-0.3783319136728043,-9.809065144264771,0.0,0.0,0.0,0.0,0.0,0.0,0.0,0.0,0.0
1710444412.7373602,349,1710444412,737233400,map,0.0016039499492489118,1.1889003047906189e-05,4.075566516738931e-05,0.9999987127702654,0.0,0.0,0.0,0.0,0.0,0.0,0.0,0.0,0.0,0.007945320350401191,4.463956609920222e-05,0.0007279326268205736,0.0,0.0,0.0,0.0,0.0,0.0,0.0,0.0,0.0,0.0022993771482718584,-0.389371643600912,-9.8082781767266,0.0,0.0,0.0,0.0,0.0,0.0,0.0,0.0,0.0
1710444412.753303,350,1710444412,753189087,map,0.0016503037139185583,1.2117540701898493e-05,4.475662656694583e-05,0.999998637172902,0.0,0.0,0.0,0.0,0.0,0.0,0.0,0.0,0.0,0.009270757417310316,4.665037796662296e-05,0.0008002266119425417,0.0,0.0,0.0,0.0,0.0,0.0,0.0,0.0,0.0,0.002674129221164799,-0.4026133274000327,-9.807749651190608,0.0,0.0,0.0,0.0,0.0,0.0,0.0,0.0,0.0
1710444412.7698662,351,1710444412,769780636,map,0.0017043838050569647,1.2385738325058046e-05,4.914535855788332e-05,0.9999985462525295,0.0,0.0,0.0,0.0,0.0,0.0,0.0,0.0,0.0,0.010816025026675582,5.4651602364530125e-05,0.0008777856035841172,0.0,0.0,0.0,0.0,0.0,0.0,0.0,0.0,0.0,0.002988762204986308,-0.41292438839758394,-9.80800017695128,0.0,0.0,0.0,0.0,0.0,0.0,0.0,0.0,0.0
1710444412.786524,352,1710444412,786251068,map,0.0017674194650963437,1.2687166846978273e-05,5.39627528811256e-05,0.9999984365765237,0.0,0.0,0.0,0.0,0.0,0.0,0.0,0.0,0.0,0.012607141808497984,6.136918097595814e-05,0.0009635280741349005,0.0,0.0,0.0,0.0,0.0,0.0,0.0,0.0,0.0,0.003138302553093388,-0.4352635781004164,-9.807034395487277,0.0,0.0,0.0,0.0,0.0,0.0,0.0,0.0,0.0
1710444412.80309,353,1710444412,802984238,map,0.0018368215098724299,1.3010114861057825e-05,5.9240747384984076e-05,0.9999983112025799,0.0,0.0,0.0,0.0,0.0,0.0,0.0,0.0,0.0,0.013880421328936177,6.577974583792139e-05,0.0010556559869656721,0.0,0.0,0.0,0.0,0.0,0.0,0.0,0.0,0.0,0.0034508425481209986,-0.45783032336682405,-9.806946385508155,0.0,0.0,0.0,0.0,0.0,0.0,0.0,0.0,0.0
1710444412.8203008,354,1710444412,820148468,map,0.0019115695360060268,1.3368440839176832e-05,6.500761590507046e-05,0.9999981707469288,0.0,0.0,0.0,0.0,0.0,0.0,0.0,0.0,0.0,0.01494962041148987,7.298457287662985e-05,0.0011534308280210296,0.0,0.0,0.0,0.0,0.0,0.0,0.0,0.0,0.0,0.0038084821947957843,-0.47578354420027624,-9.807184338414668,0.0,0.0,0.0,0.0,0.0,0.0,0.0,0.0,0.0
1710444412.8364851,355,1710444412,836273670,map,0.0019931310863211737,1.377817304552882e-05,7.131827408053619e-05,0.9999980110741913,0.0,0.0,0.0,0.0,0.0,0.0,0.0,0.0,0.0,0.01631232921527346,8.340189253075016e-05,0.0012621860279661645,0.0,0.0,0.0,0.0,0.0,0.0,0.0,0.0,0.0,0.003965286463578086,-0.5005369219906787,-9.807198308252623,0.0,0.0,0.0,0.0,0.0,0.0,0.0,0.0,0.0
1710444412.8531384,356,1710444412,853018045,map,0.0020789280151936192,1.4200997350783139e-05,7.824322385152235e-05,0.999997835864977,0.0,0.0,0.0,0.0,0.0,0.0,0.0,0.0,0.0,0.017159407861484025,8.622069794864809e-05,0.0013850501824402713,0.0,0.0,0.0,0.0,0.0,0.0,0.0,0.0,0.0,0.004299263702455621,-0.531291014571123,-9.808468632184061,0.0,0.0,0.0,0.0,0.0,0.0,0.0,0.0,0.0
1710444412.8704004,357,1710444412,870219946,map,0.002166885953463899,1.4667512484527578e-05,8.581918799313218e-05,0.9999976485098332,0.0,0.0,0.0,0.0,0.0,0.0,0.0,0.0,0.0,0.017591612567995435,9.521018918552886e-05,0.0015152399602799454,0.0,0.0,0.0,0.0,0.0,0.0,0.0,0.0,0.0,0.0050735562388477765,-0.5606865731521833,-9.808436967218029,0.0,0.0,0.0,0.0,0.0,0.0,0.0,0.0,0.0
1710444412.8866675,358,1710444412,886482716,map,0.0022549853089091684,1.5160518402173004e-05,9.409149938833863e-05,0.9999974529758588,0.0,0.0,0.0,0.0,0.0,0.0,0.0,0.0,0.0,0.017619897780456247,0.0001008201941043322,0.0016544976510947098,0.0,0.0,0.0,0.0,0.0,0.0,0.0,0.0,0.0,0.005209475582833281,-0.57337081130416,-9.808924048901417,0.0,0.0,0.0,0.0,0.0,0.0,0.0,0.0,0.0
1710444412.9036715,359,1710444412,903557539,map,0.002338130033960868,1.6788806583023658e-05,0.00010285609490310238,0.9999972611396014,0.0,0.0,0.0,0.0,0.0,0.0,0.0,0.0,0.0,0.016628990384251103,0.00032819125792080204,0.0017524087171349651,0.0,0.0,0.0,0.0,0.0,0.0,0.0,0.0,0.0,0.005824836400328189,-0.570830494497339,-9.809470269565486,0.0,0.0,0.0,0.0,0.0,0.0,0.0,0.0,0.0
1710444412.9204137,360,1710444412,920221806,map,0.002413395796863601,1.718767274374845e-05,0.00011245104563947787,0.9999970812857776,0.0,0.0,0.0,0.0,0.0,0.0,0.0,0.0,0.0,0.015053170663874987,8.285659663737944e-05,0.0019190485647113545,0.0,0.0,0.0,0.0,0.0,0.0,0.0,0.0,0.0,0.0018030381450790955,-0.5678501059670417,-9.808440692508151,0.0,0.0,0.0,0.0,0.0,0.0,0.0,0.0,0.0
1710444412.9368958,361,1710444412,936782837,map,0.002480380275751435,1.7944407143142872e-05,0.00012288864136733943,0.9999969161402789,0.0,0.0,0.0,0.0,0.0,0.0,0.0,0.0,0.0,0.013396915920513936,0.00015501834287835156,0.0020873713892768835,0.0,0.0,0.0,0.0,0.0,0.0,0.0,0.0,0.0,0.013297544961050345,-0.5583807349822787,-9.80800716187026,0.0,0.0,0.0,0.0,0.0,0.0,0.0,0.0,0.0
1710444412.9532824,362,1710444412,953176737,map,0.002535578001623299,1.859300310933687e-05,0.00013422208580000228,0.9999967762362685,0.0,0.0,0.0,0.0,0.0,0.0,0.0,0.0,0.0,0.011039554286099897,0.0001341100199575336,0.0022665542809974164,0.0,0.0,0.0,0.0,0.0,0.0,0.0,0.0,0.0,0.004496925764666502,-0.5244071695536695,-9.807810652816348,0.0,0.0,0.0,0.0,0.0,0.0,0.0,0.0,0.0
1710444412.970805,363,1710444412,970517397,map,0.002577677688617447,1.9146242820450805e-05,0.00014643201207563565,0.9999966668788556,0.0,0.0,0.0,0.0,0.0,0.0,0.0,0.0,0.0,0.008419933748480683,0.00011581249595771394,0.0024418514403705114,0.0,0.0,0.0,0.0,0.0,0.0,0.0,0.0,0.0,0.007508899314284683,-0.47872123013736423,-9.806941263234238,0.0,0.0,0.0,0.0,0.0,0.0,0.0,0.0,0.0
1710444412.987123,364,1710444412,986997128,map,0.0026058892751110617,1.9764202403479745e-05,0.00015944491588840777,0.9999965917580824,0.0,0.0,0.0,0.0,0.0,0.0,0.0,0.0,0.0,0.005642303803373427,0.00012954760739820542,0.002602360083280578,0.0,0.0,0.0,0.0,0.0,0.0,0.0,0.0,0.0,0.007639484898423271,-0.4062414180084017,-9.805586654613801,0.0,0.0,0.0,0.0,0.0,0.0,0.0,0.0,0.0
1710444413.0043733,365,1710444413,4258156,map,0.0025865438102814233,2.005764339058498e-05,0.00017324235744046825,0.9999966396823012,0.0,0.0,0.0,0.0,0.0,0.0,0.0,0.0,0.0,-0.0038691508549787345,6.644225641671615e-05,0.002759249258652608,0.0,0.0,0.0,0.0,0.0,0.0,0.0,0.0,0.0,0.007672758447868421,-0.30177232132722775,-9.804672095888968,0.0,0.0,0.0,0.0,0.0,0.0,0.0,0.0,0.0
1710444413.0206125,366,1710444413,20505190,map,0.0024519227838066906,1.9773404663665378e-05,0.00018787417803656301,0.9999969761889124,0.0,0.0,0.0,0.0,0.0,0.0,0.0,0.0,0.0,-0.026924356869021636,-4.5009218626004726e-05,0.002925943596738275,0.0,0.0,0.0,0.0,0.0,0.0,0.0,0.0,0.0,0.009177359307360883,-0.2707650290718149,-9.797560517046985,0.0,0.0,0.0,0.0,0.0,0.0,0.0,0.0,0.0
1710444413.0370793,367,1710444413,36956549,map,0.00218492009163004,1.8338185987953533e-05,0.00020332977151169004,0.9999975922195554,0.0,0.0,0.0,0.0,0.0,0.0,0.0,0.0,0.0,-0.05340079056868326,-0.0002702587654001228,0.003090662049571097,0.0,0.0,0.0,0.0,0.0,0.0,0.0,0.0,0.0,0.0033842154421224522,-0.3302848624582142,-9.781356436340904,0.0,0.0,0.0,0.0,0.0,0.0,0.0,0.0,0.0
1710444413.0536542,368,1710444413,53522587,map,0.0017880127659486579,1.5453898217449477e-05,0.00021973637481552305,0.999998377242409,0.0,0.0,0.0,0.0,0.0,0.0,0.0,0.0,0.0,-0.07938178750464407,-0.0005548512543297837,0.003280865545123806,0.0,0.0,0.0,0.0,0.0,0.0,0.0,0.0,0.0,0.009162461699588311,-0.19482426234890018,-9.775620886537558,0.0,0.0,0.0,0.0,0.0,0.0,0.0,0.0,0.0
1710444413.0704312,369,1710444413,70288181,map,0.001310534862798196,1.147632141772262e-05,0.00023689378703993963,0.9999991131236072,0.0,0.0,0.0,0.0,0.0,0.0,0.0,0.0,0.0,-0.09549590708369814,-0.0007700352878597844,0.003431023864311745,0.0,0.0,0.0,0.0,0.0,0.0,0.0,0.0,0.0,0.016447818908117466,-0.0179801127715169,-9.772136808951407,0.0,0.0,0.0,0.0,0.0,0.0,0.0,0.0,0.0
1710444413.0875804,370,1710444413,87459326,map,0.0008148067129597591,7.1487451486012305e-06,0.00025482264644672464,0.999999635552101,0.0,0.0,0.0,0.0,0.0,0.0,0.0,0.0,0.0,-0.09914591419184322,-0.0008391068772522052,0.0035853248806967473,0.0,0.0,0.0,0.0,0.0,0.0,0.0,0.0,0.0,0.010568792115969155,0.16572211038267462,-9.779162240459328,0.0,0.0,0.0,0.0,0.0,0.0,0.0,0.0,0.0
1710444413.1045384,371,1710444413,104291439,map,0.00035975874083494976,2.6782636725259183e-06,0.0002736716461443964,0.9999998978351474,0.0,0.0,0.0,0.0,0.0,0.0,0.0,0.0,0.0,-0.09100984555327116,-0.0008695487639056416,0.0037694678128239152,0.0,0.0,0.0,0.0,0.0,0.0,0.0,0.0,0.0,0.006218585770275765,0.38656295129124957,-9.788497351842592,0.0,0.0,0.0,0.0,0.0,0.0,0.0,0.0,0.0
1710444413.1198003,372,1710444413,119640827,map,-1.2703240126529172e-05,-1.2855998859149543e-06,0.0002935589339397284,0.9999999568300627,0.0,0.0,0.0,0.0,0.0,0.0,0.0,0.0,0.0,-0.07449260681545689,-0.0007724367135998187,0.0039772521923529145,0.0,0.0,0.0,0.0,0.0,0.0,0.0,0.0,0.0,0.007401134741697332,0.5769375728687121,-9.799884166760284,0.0,0.0,0.0,0.0,0.0,0.0,0.0,0.0,0.0
1710444413.1373017,373,1710444413,137177467,map,-0.0002509281284720581,-4.175726143478015e-06,0.00031462012142740957,0.9999999190159052,0.0,0.0,0.0,0.0,0.0,0.0,0.0,0.0,0.0,-0.04764512853762204,-0.0005650955969176362,0.004212158945006061,0.0,0.0,0.0,0.0,0.0,0.0,0.0,0.0,0.0,0.005268014069664089,0.6832960319257363,-9.809629525718181,0.0,0.0,0.0,0.0,0.0,0.0,0.0,0.0,0.0
1710444413.1534264,374,1710444413,153227568,map,-0.00033323096464469177,-5.551117652277099e-06,0.0003370036944372912,0.9999998876774033,0.0,0.0,0.0,0.0,0.0,0.0,0.0,0.0,0.0,-0.016460629273904077,-0.00027139126056518873,0.004476693600501259,0.0,0.0,0.0,0.0,0.0,0.0,0.0,0.0,0.0,0.004083673308500006,0.8036010167713725,-9.824048261133525,0.0,0.0,0.0,0.0,0.0,0.0,0.0,0.0,0.0
1710444413.171045,375,1710444413,170953512,map,-0.00023829939015206005,-5.553311458399452e-06,0.00036069433722363633,0.999999906541074,0.0,0.0,0.0,0.0,0.0,0.0,0.0,0.0,0.0,0.018986340399738812,-7.966301193810225e-06,0.0047380219902154784,0.0,0.0,0.0,0.0,0.0,0.0,0.0,0.0,0.0,0.0036612973952218496,0.809724375097134,-9.836123323401166,0.0,0.0,0.0,0.0,0.0,0.0,0.0,0.0,0.0
1710444413.1871252,376,1710444413,187000513,map,3.84449952807226e-05,-3.93358089474321e-06,0.0003858733338208204,0.999999924804137,0.0,0.0,0.0,0.0,0.0,0.0,0.0,0.0,0.0,0.05534901066077705,0.00030417560513704367,0.005035483372200738,0.0,0.0,0.0,0.0,0.0,0.0,0.0,0.0,0.0,0.007345376892676574,0.7957979600544125,-9.84947243489037,0.0,0.0,0.0,0.0,0.0,0.0,0.0,0.0,0.0
1710444413.2043703,377,1710444413,204259396,map,0.00048333408209881893,-1.447915617991809e-06,0.0004127141005827263,0.9999997980265496,0.0,0.0,0.0,0.0,0.0,0.0,0.0,0.0,0.0,0.0889780150713925,0.0004653931622143141,0.0053675871020783805,0.0,0.0,0.0,0.0,0.0,0.0,0.0,0.0,0.0,0.006098113937270771,0.7029309593145932,-9.862078816661592,0.0,0.0,0.0,0.0,0.0,0.0,0.0,0.0,0.0
1710444413.2215395,378,1710444413,221422434,map,0.0010598562622853845,1.5731420665286328e-06,0.00044114026095375456,0.9999993410485324,0.0,0.0,0.0,0.0,0.0,0.0,0.0,0.0,0.0,0.115304704964518,0.0005626487159373331,0.0056844862243596,0.0,0.0,0.0,0.0,0.0,0.0,0.0,0.0,0.0,0.010672001655089285,0.511508920032573,-9.870413687647229,0.0,0.0,0.0,0.0,0.0,0.0,0.0,0.0,0.0
1710444413.2367985,379,1710444413,236676693,map,0.00173579910308875,1.030317851265643e-05,0.000471973641164345,0.9999983820667914,0.0,0.0,0.0,0.0,0.0,0.0,0.0,0.0,0.0,0.13518940094790688,0.0016970720177072692,0.006163973020444405,0.0,0.0,0.0,0.0,0.0,0.0,0.0,0.0,0.0,0.020239553014570977,0.19553890323384288,-9.873942003053573,0.0,0.0,0.0,0.0,0.0,0.0,0.0,0.0,0.0
1710444413.2542758,380,1710444413,254138708,map,0.0024432876354736456,1.8111254510676924e-05,0.0005048639376318626,0.9999968875601151,0.0,0.0,0.0,0.0,0.0,0.0,0.0,0.0,0.0,0.1414986278495554,0.0015109035155662213,0.006575869643415838,0.0,0.0,0.0,0.0,0.0,0.0,0.0,0.0,0.0,-0.006000635436633106,-0.06724455714740565,-9.875859130482361,0.0,0.0,0.0,0.0,0.0,0.0,0.0,0.0,0.0
1710444413.2702913,381,1710444413,270187378,map,0.0031350517862612417,2.7337968271297515e-05,0.0005385144388851074,0.999994940339766,0.0,0.0,0.0,0.0,0.0,0.0,0.0,0.0,0.0,0.13835411151298704,0.0017965922710818287,0.006727031741674158,0.0,0.0,0.0,0.0,0.0,0.0,0.0,0.0,0.0,0.02695828979279238,-0.43188423428116746,-9.867254175962914,0.0,0.0,0.0,0.0,0.0,0.0,0.0,0.0,0.0
