Time,header.seq,header.stamp.secs,header.stamp.nsecs,header.frame_id,orientation.x,orientation.y,orientation.z,orientation.w,orientation_covariance_0,orientation_covariance_1,orientation_covariance_2,orientation_covariance_3,orientation_covariance_4,orientation_covariance_5,orientation_covariance_6,orientation_covariance_7,orientation_covariance_8,angular_velocity.x,angular_velocity.y,angular_velocity.z,angular_velocity_covariance_0,angular_velocity_covariance_1,angular_velocity_covariance_2,angular_velocity_covariance_3,angular_velocity_covariance_4,angular_velocity_covariance_5,angular_velocity_covariance_6,angular_velocity_covariance_7,angular_velocity_covariance_8,linear_acceleration.x,linear_acceleration.y,linear_acceleration.z,linear_acceleration_covariance_0,linear_acceleration_covariance_1,linear_acceleration_covariance_2,linear_acceleration_covariance_3,linear_acceleration_covariance_4,linear_acceleration_covariance_5,linear_acceleration_covariance_6,linear_acceleration_covariance_7,linear_acceleration_covariance_8
1710446120.8501244,270,1710446120,850015402,map,0.0004086122062682996,6.0238087248861995e-06,1.59757293936501e-08,0.9999999164998857,0.0,0.0,0.0,0.0,0.0,0.0,0.0,0.0,0.0,-0.0,0.0,-0.0,0.0,0.0,0.0,0.0,0.0,0.0,0.0,0.0,0.0,1.7053542656261277e-05,-0.0067508359711103754,-9.810878894892685,0.0,0.0,0.0,0.0,0.0,0.0,0.0,0.0,0.0
1710446120.8658702,271,1710446120,865738630,map,0.0004086122062682996,6.0238087248861995e-06,1.59757293936501e-08,0.9999999164998857,0.0,0.0,0.0,0.0,0.0,0.0,0.0,0.0,0.0,-0.0,0.0,-0.0,0.0,0.0,0.0,0.0,0.0,0.0,0.0,0.0,0.0,1.7082798363838208e-05,-0.006750494001118751,-9.810487739429925,0.0,0.0,0.0,0.0,0.0,0.0,0.0,0.0,0.0
1710446120.8829257,272,1710446120,882797956,map,0.0004086122062682996,6.0238087248861995e-06,1.59757293936501e-08,0.9999999164998857,0.0,0.0,0.0,0.0,0.0,0.0,0.0,0.0,0.0,-0.0,0.0,-0.0,0.0,0.0,0.0,0.0,0.0,0.0,0.0,0.0,0.0,1.798825536350828e-05,-0.0067504160119517785,-9.810476097898295,0.0,0.0,0.0,0.0,0.0,0.0,0.0,0.0,0.0
1710446120.8998413,273,1710446120,899732113,map,0.0004086122062682996,6.0238087248861995e-06,1.59757293936501e-08,0.9999999164998857,0.0,0.0,0.0,0.0,0.0,0.0,0.0,0.0,0.0,-0.0,0.0,-0.0,0.0,0.0,0.0,0.0,0.0,0.0,0.0,0.0,0.0,1.711017468596832e-05,-0.006750347799852385,-9.810476097898295,0.0,0.0,0.0,0.0,0.0,0.0,0.0,0.0,0.0
1710446120.916556,274,1710446120,916409492,map,0.0004086122062682996,6.0238087248861995e-06,1.59757293936501e-08,0.9999999164998857,0.0,0.0,0.0,0.0,0.0,0.0,0.0,0.0,0.0,-0.0,0.0,-0.0,0.0,0.0,0.0,0.0,0.0,0.0,0.0,0.0,0.0,1.7166319993924483e-05,-0.006750278678258333,-9.810476097898295,0.0,0.0,0.0,0.0,0.0,0.0,0.0,0.0,0.0
1710446120.9328575,275,1710446120,932599068,map,0.0004086122062682996,6.0238087248861995e-06,1.59757293936501e-08,0.9999999164998857,0.0,0.0,0.0,0.0,0.0,0.0,0.0,0.0,0.0,-0.0,0.0,-0.0,0.0,0.0,0.0,0.0,0.0,0.0,0.0,0.0,0.0,1.7132648263454556e-05,-0.006750210466158941,-9.810476097898295,0.0,0.0,0.0,0.0,0.0,0.0,0.0,0.0,0.0
1710446120.949449,276,1710446120,949352741,map,0.0004086122062682996,6.0238087248861995e-06,1.59757293936501e-08,0.9999999164998857,0.0,0.0,0.0,0.0,0.0,0.0,0.0,0.0,0.0,-0.0,0.0,-0.0,0.0,0.0,0.0,0.0,0.0,0.0,0.0,0.0,0.0,1.714789384530458e-05,-0.0067501399803229015,-9.810476097898295,0.0,0.0,0.0,0.0,0.0,0.0,0.0,0.0,0.0
1710446120.9657738,277,1710446120,965584278,map,0.0004086122062682996,6.0238087248861995e-06,1.59757293936501e-08,0.9999999164998857,0.0,0.0,0.0,0.0,0.0,0.0,0.0,0.0,0.0,-0.0,0.0,-0.0,0.0,0.0,0.0,0.0,0.0,0.0,0.0,0.0,0.0,1.8057463110862542e-05,-0.006749744577520086,-9.810002054730333,0.0,0.0,0.0,0.0,0.0,0.0,0.0,0.0,0.0
1710446120.9824975,278,1710446120,982357025,map,0.0004086122062682996,6.0238087248861995e-06,1.59757293936501e-08,0.9999999164998857,0.0,0.0,0.0,0.0,0.0,0.0,0.0,0.0,0.0,-0.0,0.0,-0.0,0.0,0.0,0.0,0.0,0.0,0.0,0.0,0.0,0.0,1.8955292434626523e-05,-0.006750326654101573,-9.810945484453608,0.0,0.0,0.0,0.0,0.0,0.0,0.0,0.0,0.0
1710446120.9989197,279,1710446120,998720407,map,0.0004086122062682996,6.0238087248861995e-06,1.59757293936501e-08,0.9999999164998857,0.0,0.0,0.0,0.0,0.0,0.0,0.0,0.0,0.0,-0.0,0.0,-0.0,0.0,0.0,0.0,0.0,0.0,0.0,0.0,0.0,0.0,1.7168943672851662e-05,-0.006749944666344972,-9.810489602074986,0.0,0.0,0.0,0.0,0.0,0.0,0.0,0.0,0.0
1710446121.0174148,280,1710446121,17329454,map,0.0004086122062682996,6.0238087248861995e-06,1.59757293936501e-08,0.9999999164998857,0.0,0.0,0.0,0.0,0.0,0.0,0.0,0.0,0.0,-0.0,0.0,-0.0,0.0,0.0,0.0,0.0,0.0,0.0,0.0,0.0,0.0,1.72652683942498e-05,-0.006749875317377256,-9.810476097898295,0.0,0.0,0.0,0.0,0.0,0.0,0.0,0.0,0.0
1710446121.032867,281,1710446121,32739639,map,0.0004086122062682996,6.0238087248861995e-06,1.59757293936501e-08,0.9999999164998857,0.0,0.0,0.0,0.0,0.0,0.0,0.0,0.0,0.0,-0.0,0.0,-0.0,0.0,0.0,0.0,0.0,0.0,0.0,0.0,0.0,0.0,1.7168010197376894e-05,-0.0067498159728507845,-9.810476097898295,0.0,0.0,0.0,0.0,0.0,0.0,0.0,0.0,0.0
1710446121.049137,282,1710446121,49016714,map,0.0004086122062682996,6.0238087248861995e-06,1.59757293936501e-08,0.9999999164998857,0.0,0.0,0.0,0.0,0.0,0.0,0.0,0.0,0.0,-0.0,0.0,-0.0,0.0,0.0,0.0,0.0,0.0,0.0,0.0,0.0,0.0,1.7243092356520032e-05,-0.006749756855697977,-9.810476097898295,0.0,0.0,0.0,0.0,0.0,0.0,0.0,0.0,0.0
1710446121.0664039,283,1710446121,66209316,map,0.0004086122062682996,6.0238087248861995e-06,1.59757293936501e-08,0.9999999164998857,0.0,0.0,0.0,0.0,0.0,0.0,0.0,0.0,0.0,-0.0,0.0,-0.0,0.0,0.0,0.0,0.0,0.0,0.0,0.0,0.0,0.0,1.721942773182955e-05,-0.00674969728379784,-9.810476097898295,0.0,0.0,0.0,0.0,0.0,0.0,0.0,0.0,0.0
1710446121.0830348,284,1710446121,82825422,map,0.0004086122062682996,6.0238087248861995e-06,1.59757293936501e-08,0.9999999164998857,0.0,0.0,0.0,0.0,0.0,0.0,0.0,0.0,0.0,-0.0,0.0,-0.0,0.0,0.0,0.0,0.0,0.0,0.0,0.0,0.0,0.0,1.8133065742534904e-05,-0.006742235789618897,-9.810476097898295,0.0,0.0,0.0,0.0,0.0,0.0,0.0,0.0,0.0
1710446121.0993092,285,1710446121,99088430,map,0.0004086122062682996,6.0238087248861995e-06,1.59757293936501e-08,0.9999999164998857,0.0,0.0,0.0,0.0,0.0,0.0,0.0,0.0,0.0,-0.0,0.0,-0.0,0.0,0.0,0.0,0.0,0.0,0.0,0.0,0.0,0.0,1.7247389363510444e-05,-0.006756605350477041,-9.810001589069067,0.0,0.0,0.0,0.0,0.0,0.0,0.0,0.0,0.0
1710446121.116263,286,1710446121,116132736,map,0.0004086122062682996,6.0238087248861995e-06,1.59757293936501e-08,0.9999999164998857,0.0,0.0,0.0,0.0,0.0,0.0,0.0,0.0,0.0,-0.0,0.0,-0.0,0.0,0.0,0.0,0.0,0.0,0.0,0.0,0.0,0.0,1.731066940837318e-05,-0.006742655521403829,-9.810945950114872,0.0,0.0,0.0,0.0,0.0,0.0,0.0,0.0,0.0
1710446121.1322954,287,1710446121,132190466,map,0.0004086122062682996,6.0238087248861995e-06,1.59757293936501e-08,0.9999999164998857,0.0,0.0,0.0,0.0,0.0,0.0,0.0,0.0,0.0,-0.0,0.0,-0.0,0.0,0.0,0.0,0.0,0.0,0.0,0.0,0.0,0.0,1.7271368403346567e-05,-0.006749430347115549,-9.810489602074986,0.0,0.0,0.0,0.0,0.0,0.0,0.0,0.0,0.0
1710446121.1488783,288,1710446121,148755789,map,0.0004086122062682996,6.0238087248861995e-06,1.59757293936501e-08,0.9999999164998857,0.0,0.0,0.0,0.0,0.0,0.0,0.0,0.0,0.0,-0.0,0.0,-0.0,0.0,0.0,0.0,0.0,0.0,0.0,0.0,0.0,0.0,1.7302286780846203e-05,-0.00674957291040328,-9.810476097898295,0.0,0.0,0.0,0.0,0.0,0.0,0.0,0.0,0.0
1710446121.1660569,289,1710446121,165880680,map,0.0004086122062682996,6.0238087248861995e-06,1.59757293936501e-08,0.9999999164998857,0.0,0.0,0.0,0.0,0.0,0.0,0.0,0.0,0.0,-0.0,0.0,-0.0,0.0,0.0,0.0,0.0,0.0,0.0,0.0,0.0,0.0,1.771857687456535e-05,-0.006742117555313282,-9.810476097898295,0.0,0.0,0.0,0.0,0.0,0.0,0.0,0.0,0.0
1710446121.1823695,290,1710446121,182211876,map,0.0004086122062682996,6.0238087248861995e-06,1.59757293936501e-08,0.9999999164998857,0.0,0.0,0.0,0.0,0.0,0.0,0.0,0.0,0.0,-0.0,0.0,-0.0,0.0,0.0,0.0,0.0,0.0,0.0,0.0,0.0,0.0,1.7874362473802914e-05,-0.006756814534248513,-9.810475632237031,0.0,0.0,0.0,0.0,0.0,0.0,0.0,0.0,0.0
1710446121.1994326,291,1710446121,199196815,map,0.0004086122062682996,6.0238087248861995e-06,1.59757293936501e-08,0.9999999164998857,0.0,0.0,0.0,0.0,0.0,0.0,0.0,0.0,0.0,-0.0,0.0,-0.0,0.0,0.0,0.0,0.0,0.0,0.0,0.0,0.0,0.0,1.8981471492303747e-05,-0.006742213961747091,-9.810476097898295,0.0,0.0,0.0,0.0,0.0,0.0,0.0,0.0,0.0
1710446121.2158859,292,1710446121,215755463,map,0.0004086122062682996,6.0238087248861995e-06,1.59757293936501e-08,0.9999999164998857,0.0,0.0,0.0,0.0,0.0,0.0,0.0,0.0,0.0,-0.0,0.0,-0.0,0.0,0.0,0.0,0.0,0.0,0.0,0.0,0.0,0.0,1.7357864542819137e-05,-0.006741902459826529,-9.810476097898295,0.0,0.0,0.0,0.0,0.0,0.0,0.0,0.0,0.0
1710446121.2327135,293,1710446121,232574224,map,0.0004086122062682996,6.0238087248861995e-06,1.59757293936501e-08,0.9999999164998857,0.0,0.0,0.0,0.0,0.0,0.0,0.0,0.0,0.0,-0.0,0.0,-0.0,0.0,0.0,0.0,0.0,0.0,0.0,0.0,0.0,0.0,1.7434536541258023e-05,-0.0067564905267763955,-9.810001589069067,0.0,0.0,0.0,0.0,0.0,0.0,0.0,0.0,0.0
1710446121.2490213,294,1710446121,248939276,map,0.0004086122062682996,6.0238087248861995e-06,1.59757293936501e-08,0.9999999164998857,0.0,0.0,0.0,0.0,0.0,0.0,0.0,0.0,0.0,-0.0,0.0,-0.0,0.0,0.0,0.0,0.0,0.0,0.0,0.0,0.0,0.0,1.728142702347191e-05,-0.006742548883155111,-9.810945484453608,0.0,0.0,0.0,0.0,0.0,0.0,0.0,0.0,0.0
1710446121.2954934,295,1710446121,295224667,map,0.0004086122062682996,6.0238087248861995e-06,1.59757293936501e-08,0.9999999164998857,0.0,0.0,0.0,0.0,0.0,0.0,0.0,0.0,0.0,-0.0,0.0,-0.0,0.0,0.0,0.0,0.0,0.0,0.0,0.0,0.0,0.0,1.7373463619663413e-05,-0.0067419265614349815,-9.810489602074986,0.0,0.0,0.0,0.0,0.0,0.0,0.0,0.0,0.0
1710446121.3072164,296,1710446121,307038546,map,0.0004086122062682996,6.0238087248861995e-06,1.59757293936501e-08,0.9999999164998857,0.0,0.0,0.0,0.0,0.0,0.0,0.0,0.0,0.0,-0.0,0.0,-0.0,0.0,0.0,0.0,0.0,0.0,0.0,0.0,0.0,0.0,1.7391018465294974e-05,-0.006749426709136914,-9.810476097898295,0.0,0.0,0.0,0.0,0.0,0.0,0.0,0.0,0.0
1710446121.3171377,297,1710446121,316883564,map,0.0004086122062682996,6.0238087248861995e-06,1.59757293936501e-08,0.9999999164998857,0.0,0.0,0.0,0.0,0.0,0.0,0.0,0.0,0.0,-0.0,0.0,-0.0,0.0,0.0,0.0,0.0,0.0,0.0,0.0,0.0,0.0,1.7377396473519044e-05,-0.006749592237164775,-9.810476097898295,0.0,0.0,0.0,0.0,0.0,0.0,0.0,0.0,0.0
1710446121.3292203,298,1710446121,328835964,map,0.0004086122062682996,6.0238087248861995e-06,1.59757293936501e-08,0.9999999164998857,0.0,0.0,0.0,0.0,0.0,0.0,0.0,0.0,0.0,-0.0,0.0,-0.0,0.0,0.0,0.0,0.0,0.0,0.0,0.0,0.0,0.0,1.7807158456868324e-05,-0.006742143930658381,-9.810476097898295,0.0,0.0,0.0,0.0,0.0,0.0,0.0,0.0,0.0
1710446121.3386364,299,1710446121,338522196,map,0.0004086122062682996,6.0238087248861995e-06,1.59757293936501e-08,0.9999999164998857,0.0,0.0,0.0,0.0,0.0,0.0,0.0,0.0,0.0,-0.0,0.0,-0.0,0.0,0.0,0.0,0.0,0.0,0.0,0.0,0.0,0.0,1.7960180044995064e-05,-0.006742042067256621,-9.810476097898295,0.0,0.0,0.0,0.0,0.0,0.0,0.0,0.0,0.0
1710446121.3495367,300,1710446121,349418402,map,0.0004086122062682996,6.0238087248861995e-06,1.59757293936501e-08,0.9999999164998857,0.0,0.0,0.0,0.0,0.0,0.0,0.0,0.0,0.0,-0.0,0.0,-0.0,0.0,0.0,0.0,0.0,0.0,0.0,0.0,0.0,0.0,1.739978389770266e-05,-0.0067495567668730905,-9.810476097898295,0.0,0.0,0.0,0.0,0.0,0.0,0.0,0.0,0.0
1710446121.366309,301,1710446121,366203785,map,0.0004086122062682996,6.0238087248861995e-06,1.59757293936501e-08,0.9999999164998857,0.0,0.0,0.0,0.0,0.0,0.0,0.0,0.0,0.0,-0.0,0.0,-0.0,0.0,0.0,0.0,0.0,0.0,0.0,0.0,0.0,0.0,1.740665751016624e-05,-0.006749673182189388,-9.810410439659904,0.0,0.0,0.0,0.0,0.0,0.0,0.0,0.0,0.0
1710446121.3832502,302,1710446121,382958174,map,0.0004086122062682996,6.0238087248861995e-06,1.59757293936501e-08,0.9999999164998857,0.0,0.0,0.0,0.0,0.0,0.0,0.0,0.0,0.0,-0.0,0.0,-0.0,0.0,0.0,0.0,0.0,0.0,0.0,0.0,0.0,0.0,1.746452410781803e-05,-0.006742027060594754,-9.810135699513442,0.0,0.0,0.0,0.0,0.0,0.0,0.0,0.0,0.0
1710446121.399368,303,1710446121,399187803,map,0.0004086122062682996,6.0238087248861995e-06,1.59757293936501e-08,0.9999999164998857,0.0,0.0,0.0,0.0,0.0,0.0,0.0,0.0,0.0,-0.0,0.0,-0.0,0.0,0.0,0.0,0.0,0.0,0.0,0.0,0.0,0.0,1.746591321880046e-05,-0.006742437015312106,-9.810879360553951,0.0,0.0,0.0,0.0,0.0,0.0,0.0,0.0,0.0
1710446121.4161897,304,1710446121,416086197,map,0.0004086122062682996,6.0238087248861995e-06,1.59757293936501e-08,0.9999999164998857,0.0,0.0,0.0,0.0,0.0,0.0,0.0,0.0,0.0,-0.0,0.0,-0.0,0.0,0.0,0.0,0.0,0.0,0.0,0.0,0.0,0.0,1.7483206939989032e-05,-0.006742279217988844,-9.810487739429925,0.0,0.0,0.0,0.0,0.0,0.0,0.0,0.0,0.0
1710446121.4326537,305,1710446121,432502985,map,0.0004086122062682996,6.0238087248861995e-06,1.59757293936501e-08,0.9999999164998857,0.0,0.0,0.0,0.0,0.0,0.0,0.0,0.0,0.0,-0.0,0.0,-0.0,0.0,0.0,0.0,0.0,0.0,0.0,0.0,0.0,0.0,1.7505483341875458e-05,-0.006742391085831849,-9.810476097898295,0.0,0.0,0.0,0.0,0.0,0.0,0.0,0.0,0.0
1710446121.4486997,306,1710446121,448588133,map,0.0004086122062682996,6.0238087248861995e-06,1.59757293936501e-08,0.9999999164998857,0.0,0.0,0.0,0.0,0.0,0.0,0.0,0.0,0.0,-0.0,0.0,-0.0,0.0,0.0,0.0,0.0,0.0,0.0,0.0,0.0,0.0,1.840624010157173e-05,-0.006757307025606131,-9.810475632237031,0.0,0.0,0.0,0.0,0.0,0.0,0.0,0.0,0.0
1710446121.4666789,307,1710446121,466487169,map,0.0004086122062682996,6.0238087248861995e-06,1.59757293936501e-08,0.9999999164998857,0.0,0.0,0.0,0.0,0.0,0.0,0.0,0.0,0.0,-0.0,0.0,-0.0,0.0,0.0,0.0,0.0,0.0,0.0,0.0,0.0,0.0,1.9238467682194154e-05,-0.0067427069078520386,-9.810476097898295,0.0,0.0,0.0,0.0,0.0,0.0,0.0,0.0,0.0
1710446121.4831357,308,1710446121,483030081,map,0.0004086122062682996,6.0238087248861995e-06,1.59757293936501e-08,0.9999999164998857,0.0,0.0,0.0,0.0,0.0,0.0,0.0,0.0,0.0,-0.0,0.0,-0.0,0.0,0.0,0.0,0.0,0.0,0.0,0.0,0.0,0.0,1.7530492668629495e-05,-0.006742390858458184,-9.810476097898295,0.0,0.0,0.0,0.0,0.0,0.0,0.0,0.0,0.0
1710446121.5000653,309,1710446121,499878645,map,0.0004086122062682996,6.0238087248861995e-06,1.59757293936501e-08,0.9999999164998857,0.0,0.0,0.0,0.0,0.0,0.0,0.0,0.0,0.0,-0.0,0.0,-0.0,0.0,0.0,0.0,0.0,0.0,0.0,0.0,0.0,0.0,1.755351958124492e-05,-0.006742451567226644,-9.810410439659904,0.0,0.0,0.0,0.0,0.0,0.0,0.0,0.0,0.0
1710446121.5165496,310,1710446121,516367197,map,0.0004086122062682996,6.0238087248861995e-06,1.59757293936501e-08,0.9999999164998857,0.0,0.0,0.0,0.0,0.0,0.0,0.0,0.0,0.0,-0.0,0.0,-0.0,0.0,0.0,0.0,0.0,0.0,0.0,0.0,0.0,0.0,1.747703676480044e-05,-0.006742378352906629,-9.810135699513442,0.0,0.0,0.0,0.0,0.0,0.0,0.0,0.0,0.0
1710446121.533906,311,1710446121,533761263,map,0.0004086122062682996,6.0238087248861995e-06,1.59757293936501e-08,0.9999999164998857,0.0,0.0,0.0,0.0,0.0,0.0,0.0,0.0,0.0,-0.0,0.0,-0.0,0.0,0.0,0.0,0.0,0.0,0.0,0.0,0.0,0.0,1.7524302065338224e-05,-0.006743005904221045,-9.810878894892685,0.0,0.0,0.0,0.0,0.0,0.0,0.0,0.0,0.0
1710446121.5491145,312,1710446121,548974991,map,0.0004086122062682996,6.0238087248861995e-06,1.59757293936501e-08,0.9999999164998857,0.0,0.0,0.0,0.0,0.0,0.0,0.0,0.0,0.0,-0.0,0.0,-0.0,0.0,0.0,0.0,0.0,0.0,0.0,0.0,0.0,0.0,1.755134532057677e-05,-0.006742847197403124,-9.810487739429925,0.0,0.0,0.0,0.0,0.0,0.0,0.0,0.0,0.0
1710446121.5665143,313,1710446121,566311598,map,0.0004086122062682996,6.0238087248861995e-06,1.59757293936501e-08,0.9999999164998857,0.0,0.0,0.0,0.0,0.0,0.0,0.0,0.0,0.0,-0.0,0.0,-0.0,0.0,0.0,0.0,0.0,0.0,0.0,0.0,0.0,0.0,1.754929362852471e-05,-0.006757749267383863,-9.810475632237031,0.0,0.0,0.0,0.0,0.0,0.0,0.0,0.0,0.0
1710446121.5831985,314,1710446121,583017349,map,0.0004086122062682996,6.0238087248861995e-06,1.59757293936501e-08,0.9999999164998857,0.0,0.0,0.0,0.0,0.0,0.0,0.0,0.0,0.0,-0.0,0.0,-0.0,0.0,0.0,0.0,0.0,0.0,0.0,0.0,0.0,0.0,1.7565144948028202e-05,-0.006750546069687955,-9.810476097898295,0.0,0.0,0.0,0.0,0.0,0.0,0.0,0.0,0.0
1710446121.5995965,315,1710446121,599452257,map,0.0004086122062682996,6.0238087248861995e-06,1.59757293936501e-08,0.9999999164998857,0.0,0.0,0.0,0.0,0.0,0.0,0.0,0.0,0.0,-0.0,0.0,-0.0,0.0,0.0,0.0,0.0,0.0,0.0,0.0,0.0,0.0,1.7587433784411914e-05,-0.0067502720844220595,-9.810476097898295,0.0,0.0,0.0,0.0,0.0,0.0,0.0,0.0,0.0
1710446121.6168494,316,1710446121,616733074,map,0.0004086122062682996,6.0238087248861995e-06,1.59757293936501e-08,0.9999999164998857,0.0,0.0,0.0,0.0,0.0,0.0,0.0,0.0,0.0,-0.0,0.0,-0.0,0.0,0.0,0.0,0.0,0.0,0.0,0.0,0.0,0.0,1.7578605291339423e-05,-0.0067576019292491735,-9.810475632237031,0.0,0.0,0.0,0.0,0.0,0.0,0.0,0.0,0.0
1710446121.6323087,317,1710446121,632168770,map,0.0004086122062682996,6.0238087248861995e-06,1.59757293936501e-08,0.9999999164998857,0.0,0.0,0.0,0.0,0.0,0.0,0.0,0.0,0.0,-0.0,0.0,-0.0,0.0,0.0,0.0,0.0,0.0,0.0,0.0,0.0,0.0,1.8473465434787378e-05,-0.0067501352054759435,-9.810410439659904,0.0,0.0,0.0,0.0,0.0,0.0,0.0,0.0,0.0
1710446121.6492484,318,1710446121,649146080,map,0.0004086122062682996,6.0238087248861995e-06,1.59757293936501e-08,0.9999999164998857,0.0,0.0,0.0,0.0,0.0,0.0,0.0,0.0,0.0,-0.0,0.0,-0.0,0.0,0.0,0.0,0.0,0.0,0.0,0.0,0.0,0.0,1.761121742500498e-05,-0.006749665224111126,-9.810135699513442,0.0,0.0,0.0,0.0,0.0,0.0,0.0,0.0,0.0
1710446121.6657467,319,1710446121,665619612,map,0.0004086122062682996,6.0238087248861995e-06,1.59757293936501e-08,0.9999999164998857,0.0,0.0,0.0,0.0,0.0,0.0,0.0,0.0,0.0,-0.0,0.0,-0.0,0.0,0.0,0.0,0.0,0.0,0.0,0.0,0.0,0.0,1.765749063029508e-05,-0.0067575082512993405,-9.810878894892685,0.0,0.0,0.0,0.0,0.0,0.0,0.0,0.0,0.0
1710446121.6825547,320,1710446121,682267904,map,0.0004086122062682996,6.0238087248861995e-06,1.59757293936501e-08,0.9999999164998857,0.0,0.0,0.0,0.0,0.0,0.0,0.0,0.0,0.0,-0.0,0.0,-0.0,0.0,0.0,0.0,0.0,0.0,0.0,0.0,0.0,0.0,1.762559703293693e-05,-0.006749821429818736,-9.810487273768661,0.0,0.0,0.0,0.0,0.0,0.0,0.0,0.0,0.0
1710446121.699062,321,1710446121,698970079,map,0.0004086122062682996,6.0238087248861995e-06,1.59757293936501e-08,0.9999999164998857,0.0,0.0,0.0,0.0,0.0,0.0,0.0,0.0,0.0,-0.0,0.0,-0.0,0.0,0.0,0.0,0.0,0.0,0.0,0.0,0.0,0.0,1.7645791544706463e-05,-0.006749541305463895,-9.810475632237031,0.0,0.0,0.0,0.0,0.0,0.0,0.0,0.0,0.0
1710446121.7159941,322,1710446121,715846539,map,0.0004086122062682996,6.0238087248861995e-06,1.59757293936501e-08,0.9999999164998857,0.0,0.0,0.0,0.0,0.0,0.0,0.0,0.0,0.0,-0.0,0.0,-0.0,0.0,0.0,0.0,0.0,0.0,0.0,0.0,0.0,0.0,1.764539275261496e-05,-0.006756881154732253,-9.810475632237031,0.0,0.0,0.0,0.0,0.0,0.0,0.0,0.0,0.0
1710446121.7323492,323,1710446121,732251167,map,0.0004086122062682996,6.0238087248861995e-06,1.59757293936501e-08,0.9999999164998857,0.0,0.0,0.0,0.0,0.0,0.0,0.0,0.0,0.0,-0.0,0.0,-0.0,0.0,0.0,0.0,0.0,0.0,0.0,0.0,0.0,0.0,1.7663210499046267e-05,-0.006749468545891209,-9.810476097898295,0.0,0.0,0.0,0.0,0.0,0.0,0.0,0.0,0.0
1710446121.7491772,324,1710446121,749084949,map,0.0004086122062682996,6.0238087248861995e-06,1.59757293936501e-08,0.9999999164998857,0.0,0.0,0.0,0.0,0.0,0.0,0.0,0.0,0.0,-0.0,0.0,-0.0,0.0,0.0,0.0,0.0,0.0,0.0,0.0,0.0,0.0,1.7685335910608517e-05,-0.006749196606988295,-9.810476097898295,0.0,0.0,0.0,0.0,0.0,0.0,0.0,0.0,0.0
1710446121.7657166,325,1710446121,765599966,map,0.0004086122062682996,6.0238087248861995e-06,1.59757293936501e-08,0.9999999164998857,0.0,0.0,0.0,0.0,0.0,0.0,0.0,0.0,0.0,-0.0,0.0,-0.0,0.0,0.0,0.0,0.0,0.0,0.0,0.0,0.0,0.0,1.770212958737055e-05,-0.00675653577413566,-9.810475166575765,0.0,0.0,0.0,0.0,0.0,0.0,0.0,0.0,0.0
1710446121.7821488,326,1710446121,782039165,map,0.0004086122062682996,6.0238087248861995e-06,1.59757293936501e-08,0.9999999164998857,0.0,0.0,0.0,0.0,0.0,0.0,0.0,0.0,0.0,-0.0,0.0,-0.0,0.0,0.0,0.0,0.0,0.0,0.0,0.0,0.0,0.0,1.7680455370424077e-05,-0.00674880120418548,-9.810002054730333,0.0,0.0,0.0,0.0,0.0,0.0,0.0,0.0,0.0
1710446121.7998214,327,1710446121,799677610,map,0.0004086122062682996,6.0238087248861995e-06,1.59757293936501e-08,0.9999999164998857,0.0,0.0,0.0,0.0,0.0,0.0,0.0,0.0,0.0,-0.0,0.0,-0.0,0.0,0.0,0.0,0.0,0.0,0.0,0.0,0.0,0.0,1.8580734290153243e-05,-0.0067491916047676724,-9.810945484453608,0.0,0.0,0.0,0.0,0.0,0.0,0.0,0.0,0.0
1710446121.8163767,328,1710446121,816254377,map,0.0004086122062682996,6.0238087248861995e-06,1.59757293936501e-08,0.9999999164998857,0.0,0.0,0.0,0.0,0.0,0.0,0.0,0.0,0.0,-0.0,0.0,-0.0,0.0,0.0,0.0,0.0,0.0,0.0,0.0,0.0,0.0,1.7731338221493473e-05,-0.006756225409083422,-9.810489136413722,0.0,0.0,0.0,0.0,0.0,0.0,0.0,0.0,0.0
1710446121.832699,329,1710446121,832585573,map,0.0004086122062682996,6.0238087248861995e-06,1.59757293936501e-08,0.9999999164998857,0.0,0.0,0.0,0.0,0.0,0.0,0.0,0.0,0.0,-0.0,0.0,-0.0,0.0,0.0,0.0,0.0,0.0,0.0,0.0,0.0,0.0,1.945448332174607e-05,-0.006741413833821211,-9.810476097898295,0.0,0.0,0.0,0.0,0.0,0.0,0.0,0.0,0.0
1710446121.8497381,330,1710446121,849598885,map,0.0004086122062682996,6.0238087248861995e-06,1.59757293936501e-08,0.9999999164998857,0.0,0.0,0.0,0.0,0.0,0.0,0.0,0.0,0.0,-0.0,0.0,-0.0,0.0,0.0,0.0,0.0,0.0,0.0,0.0,0.0,0.0,1.771043849609219e-05,-0.006755910269184226,-9.810475632237031,0.0,0.0,0.0,0.0,0.0,0.0,0.0,0.0,0.0
1710446121.8657632,331,1710446121,865614891,map,0.0004086122062682996,6.0238087248861995e-06,1.59757293936501e-08,0.9999999164998857,0.0,0.0,0.0,0.0,0.0,0.0,0.0,0.0,0.0,-0.0,0.0,-0.0,0.0,0.0,0.0,0.0,0.0,0.0,0.0,0.0,0.0,1.778636087198046e-05,-0.0067487163938085674,-9.810475632237031,0.0,0.0,0.0,0.0,0.0,0.0,0.0,0.0,0.0
1710446121.8826003,332,1710446121,882404566,map,0.0004086122062682996,6.0238087248861995e-06,1.59757293936501e-08,0.9999999164998857,0.0,0.0,0.0,0.0,0.0,0.0,0.0,0.0,0.0,-0.0,0.0,-0.0,0.0,0.0,0.0,0.0,0.0,0.0,0.0,0.0,0.0,1.7691117063667754e-05,-0.006748461507930502,-9.810475632237031,0.0,0.0,0.0,0.0,0.0,0.0,0.0,0.0,0.0
1710446121.8996983,333,1710446121,899482012,map,0.0004086122062682996,6.0238087248861995e-06,1.59757293936501e-08,0.9999999164998857,0.0,0.0,0.0,0.0,0.0,0.0,0.0,0.0,0.0,-0.0,0.0,-0.0,0.0,0.0,0.0,0.0,0.0,0.0,0.0,0.0,0.0,1.7701579804954867e-05,-0.006748410121482293,-9.810475632237031,0.0,0.0,0.0,0.0,0.0,0.0,0.0,0.0,0.0
1710446121.9159966,334,1710446121,915781498,map,0.0004086122062682996,6.0238087248861995e-06,1.59757293936501e-08,0.9999999164998857,0.0,0.0,0.0,0.0,0.0,0.0,0.0,0.0,0.0,-0.0,0.0,-0.0,0.0,0.0,0.0,0.0,0.0,0.0,0.0,0.0,0.0,1.7733484948631922e-05,-0.006748323946863393,-9.81040997399864,0.0,0.0,0.0,0.0,0.0,0.0,0.0,0.0,0.0
1710446121.9324157,335,1710446121,932289839,map,0.0004086122062682996,6.0238087248861995e-06,1.59757293936501e-08,0.9999999164998857,0.0,0.0,0.0,0.0,0.0,0.0,0.0,0.0,0.0,-0.0,0.0,-0.0,0.0,0.0,0.0,0.0,0.0,0.0,0.0,0.0,0.0,1.776709006572354e-05,-0.006748097710067073,-9.810135233852177,0.0,0.0,0.0,0.0,0.0,0.0,0.0,0.0,0.0
1710446121.9492302,336,1710446121,949139118,map,0.0004086122062682996,6.0238087248861995e-06,1.59757293936501e-08,0.9999999164998857,0.0,0.0,0.0,0.0,0.0,0.0,0.0,0.0,0.0,-0.0,0.0,-0.0,0.0,0.0,0.0,0.0,0.0,0.0,0.0,0.0,0.0,1.7775077453872524e-05,-0.006748575649510154,-9.810878894892685,0.0,0.0,0.0,0.0,0.0,0.0,0.0,0.0,0.0
1710446121.9655478,337,1710446121,965433359,map,0.0004086122062682996,6.0238087248861995e-06,1.59757293936501e-08,0.9999999164998857,0.0,0.0,0.0,0.0,0.0,0.0,0.0,0.0,0.0,-0.0,0.0,-0.0,0.0,0.0,0.0,0.0,0.0,0.0,0.0,0.0,0.0,1.7761589577031596e-05,-0.006748269831931208,-9.810486808107395,0.0,0.0,0.0,0.0,0.0,0.0,0.0,0.0,0.0
1710446121.982259,338,1710446121,982118845,map,0.0004086122062682996,6.0238087248861995e-06,1.59757293936501e-08,0.9999999164998857,0.0,0.0,0.0,0.0,0.0,0.0,0.0,0.0,0.0,-0.0,0.0,-0.0,0.0,0.0,0.0,0.0,0.0,0.0,0.0,0.0,0.0,1.7824996631402315e-05,-0.006748225266692938,-9.810475166575765,0.0,0.0,0.0,0.0,0.0,0.0,0.0,0.0,0.0
1710446121.9993181,339,1710446121,999172211,map,0.0004086122062682996,6.0238087248861995e-06,1.59757293936501e-08,0.9999999164998857,0.0,0.0,0.0,0.0,0.0,0.0,0.0,0.0,0.0,-0.0,0.0,-0.0,0.0,0.0,0.0,0.0,0.0,0.0,0.0,0.0,0.0,1.7740655212673593e-05,-0.006748190705895912,-9.810475632237031,0.0,0.0,0.0,0.0,0.0,0.0,0.0,0.0,0.0
1710446122.0157871,340,1710446122,15599251,map,0.0004086122062682996,6.0238087248861995e-06,1.59757293936501e-08,0.9999999164998857,0.0,0.0,0.0,0.0,0.0,0.0,0.0,0.0,0.0,-0.0,0.0,-0.0,0.0,0.0,0.0,0.0,0.0,0.0,0.0,0.0,0.0,1.782436957746779e-05,-0.006748154098735904,-9.810475632237031,0.0,0.0,0.0,0.0,0.0,0.0,0.0,0.0,0.0
1710446122.0322435,341,1710446122,32133818,map,0.0004086122062682996,6.0238087248861995e-06,1.59757293936501e-08,0.9999999164998857,0.0,0.0,0.0,0.0,0.0,0.0,0.0,0.0,0.0,-0.0,0.0,-0.0,0.0,0.0,0.0,0.0,0.0,0.0,0.0,0.0,0.0,1.7799592065270285e-05,-0.006740719207275724,-9.810476097898295,0.0,0.0,0.0,0.0,0.0,0.0,0.0,0.0,0.0
1710446122.0487533,342,1710446122,48647642,map,0.0004086122062682996,6.0238087248861995e-06,1.59757293936501e-08,0.9999999164998857,0.0,0.0,0.0,0.0,0.0,0.0,0.0,0.0,0.0,-0.0,0.0,-0.0,0.0,0.0,0.0,0.0,0.0,0.0,0.0,0.0,0.0,1.78438224602921e-05,-0.006755114006610644,-9.810002054730333,0.0,0.0,0.0,0.0,0.0,0.0,0.0,0.0,0.0
1710446122.0652332,343,1710446122,65118551,map,0.0004086122062682996,6.0238087248861995e-06,1.59757293936501e-08,0.9999999164998857,0.0,0.0,0.0,0.0,0.0,0.0,0.0,0.0,0.0,-0.0,0.0,-0.0,0.0,0.0,0.0,0.0,0.0,0.0,0.0,0.0,0.0,1.782167217973528e-05,-0.006741187824398555,-9.810945484453608,0.0,0.0,0.0,0.0,0.0,0.0,0.0,0.0,0.0
1710446122.0826578,344,1710446122,82478285,map,0.0004086122062682996,6.0238087248861995e-06,1.59757293936501e-08,0.9999999164998857,0.0,0.0,0.0,0.0,0.0,0.0,0.0,0.0,0.0,-0.0,0.0,-0.0,0.0,0.0,0.0,0.0,0.0,0.0,0.0,0.0,0.0,1.8726631799513944e-05,-0.00675538412652424,-9.810489602074986,0.0,0.0,0.0,0.0,0.0,0.0,0.0,0.0,0.0
1710446122.0989554,345,1710446122,98824739,map,0.0004086122062682996,6.0238087248861995e-06,1.59757293936501e-08,0.9999999164998857,0.0,0.0,0.0,0.0,0.0,0.0,0.0,0.0,0.0,-0.0,0.0,-0.0,0.0,0.0,0.0,0.0,0.0,0.0,0.0,0.0,0.0,1.7846267615365396e-05,-0.006740792876343069,-9.810476097898295,0.0,0.0,0.0,0.0,0.0,0.0,0.0,0.0,0.0
1710446122.1157506,346,1710446122,115563393,map,0.0004086122062682996,6.0238087248861995e-06,1.59757293936501e-08,0.9999999164998857,0.0,0.0,0.0,0.0,0.0,0.0,0.0,0.0,0.0,-0.0,0.0,-0.0,0.0,0.0,0.0,0.0,0.0,0.0,0.0,0.0,0.0,1.78760535654337e-05,-0.006740502292799654,-9.810476097898295,0.0,0.0,0.0,0.0,0.0,0.0,0.0,0.0,0.0
1710446122.1326272,347,1710446122,132450581,map,0.0004086122062682996,6.0238087248861995e-06,1.59757293936501e-08,0.9999999164998857,0.0,0.0,0.0,0.0,0.0,0.0,0.0,0.0,0.0,-0.0,0.0,-0.0,0.0,0.0,0.0,0.0,0.0,0.0,0.0,0.0,0.0,1.783243601349237e-05,-0.006755435058225121,-9.810475632237031,0.0,0.0,0.0,0.0,0.0,0.0,0.0,0.0,0.0
1710446122.1492245,348,1710446122,149109364,map,0.0004086122062682996,6.0238087248861995e-06,1.59757293936501e-08,0.9999999164998857,0.0,0.0,0.0,0.0,0.0,0.0,0.0,0.0,0.0,-0.0,0.0,-0.0,0.0,0.0,0.0,0.0,0.0,0.0,0.0,0.0,0.0,1.787975904562469e-05,-0.006740864271673767,-9.810476097898295,0.0,0.0,0.0,0.0,0.0,0.0,0.0,0.0,0.0
1710446122.1659338,349,1710446122,165805340,map,0.0004086122062682996,6.0238087248861995e-06,1.59757293936501e-08,0.9999999164998857,0.0,0.0,0.0,0.0,0.0,0.0,0.0,0.0,0.0,-0.0,0.0,-0.0,0.0,0.0,0.0,0.0,0.0,0.0,0.0,0.0,0.0,1.7852344531824346e-05,-0.006740576416614328,-9.810476097898295,0.0,0.0,0.0,0.0,0.0,0.0,0.0,0.0,0.0
1710446122.1822698,350,1710446122,182152748,map,0.0004086122062682996,6.0238087248861995e-06,1.59757293936501e-08,0.9999999164998857,0.0,0.0,0.0,0.0,0.0,0.0,0.0,0.0,0.0,-0.0,0.0,-0.0,0.0,0.0,0.0,0.0,0.0,0.0,0.0,0.0,0.0,1.792674634633031e-05,-0.006755508272545135,-9.810476097898295,0.0,0.0,0.0,0.0,0.0,0.0,0.0,0.0,0.0
1710446122.1995208,351,1710446122,199264050,map,0.0004086122062682996,6.0238087248861995e-06,1.59757293936501e-08,0.9999999164998857,0.0,0.0,0.0,0.0,0.0,0.0,0.0,0.0,0.0,-0.0,0.0,-0.0,0.0,0.0,0.0,0.0,0.0,0.0,0.0,0.0,0.0,1.7881703268093067e-05,-0.006740609613169366,-9.810002054730333,0.0,0.0,0.0,0.0,0.0,0.0,0.0,0.0,0.0
1710446122.2162209,352,1710446122,216082811,map,0.0004086122062682996,6.0238087248861995e-06,1.59757293936501e-08,0.9999999164998857,0.0,0.0,0.0,0.0,0.0,0.0,0.0,0.0,0.0,-0.0,0.0,-0.0,0.0,0.0,0.0,0.0,0.0,0.0,0.0,0.0,0.0,1.795375585079051e-05,-0.006748372377453962,-9.810945018792342,0.0,0.0,0.0,0.0,0.0,0.0,0.0,0.0,0.0
1710446122.2322907,353,1710446122,232124567,map,0.0004086122062682996,6.0238087248861995e-06,1.59757293936501e-08,0.9999999164998857,0.0,0.0,0.0,0.0,0.0,0.0,0.0,0.0,0.0,-0.0,0.0,-0.0,0.0,0.0,0.0,0.0,0.0,0.0,0.0,0.0,0.0,1.7899962439178e-05,-0.0067556312816977075,-9.810489602074986,0.0,0.0,0.0,0.0,0.0,0.0,0.0,0.0,0.0
1710446122.2490857,354,1710446122,248986006,map,0.0004086122062682996,6.0238087248861995e-06,1.59757293936501e-08,0.9999999164998857,0.0,0.0,0.0,0.0,0.0,0.0,0.0,0.0,0.0,-0.0,0.0,-0.0,0.0,0.0,0.0,0.0,0.0,0.0,0.0,0.0,0.0,1.793359864251283e-05,-0.006748236408002505,-9.810475632237031,0.0,0.0,0.0,0.0,0.0,0.0,0.0,0.0,0.0
1710446122.2657382,355,1710446122,265539408,map,0.0004086122062682996,6.0238087248861995e-06,1.59757293936501e-08,0.9999999164998857,0.0,0.0,0.0,0.0,0.0,0.0,0.0,0.0,0.0,-0.0,0.0,-0.0,0.0,0.0,0.0,0.0,0.0,0.0,0.0,0.0,0.0,1.7902939613099426e-05,-0.006755385490766228,-9.810476097898295,0.0,0.0,0.0,0.0,0.0,0.0,0.0,0.0,0.0
1710446122.2823377,356,1710446122,282187700,map,0.0004086122062682996,6.0238087248861995e-06,1.59757293936501e-08,0.9999999164998857,0.0,0.0,0.0,0.0,0.0,0.0,0.0,0.0,0.0,-0.0,0.0,-0.0,0.0,0.0,0.0,0.0,0.0,0.0,0.0,0.0,0.0,1.7975520661931487e-05,-0.006755390038239521,-9.810476097898295,0.0,0.0,0.0,0.0,0.0,0.0,0.0,0.0,0.0
1710446122.2991252,357,1710446122,298967838,map,0.0004086122062682996,6.0238087248861995e-06,1.59757293936501e-08,0.9999999164998857,0.0,0.0,0.0,0.0,0.0,0.0,0.0,0.0,0.0,-0.0,0.0,-0.0,0.0,0.0,0.0,0.0,0.0,0.0,0.0,0.0,0.0,1.7942234400877396e-05,-0.006755184719820348,-9.810476097898295,0.0,0.0,0.0,0.0,0.0,0.0,0.0,0.0,0.0
1710446122.315891,358,1710446122,315696239,map,0.0004086122062682996,6.0238087248861995e-06,1.59757293936501e-08,0.9999999164998857,0.0,0.0,0.0,0.0,0.0,0.0,0.0,0.0,0.0,-0.0,0.0,-0.0,0.0,0.0,0.0,0.0,0.0,0.0,0.0,0.0,0.0,1.79489570230168e-05,-0.006754932107678929,-9.810410439659904,0.0,0.0,0.0,0.0,0.0,0.0,0.0,0.0,0.0
1710446122.3325171,359,1710446122,332320213,map,0.0004086122062682996,6.0238087248861995e-06,1.59757293936501e-08,0.9999999164998857,0.0,0.0,0.0,0.0,0.0,0.0,0.0,0.0,0.0,-0.0,0.0,-0.0,0.0,0.0,0.0,0.0,0.0,0.0,0.0,0.0,0.0,1.835784414995937e-05,-0.006747134100476313,-9.810135233852177,0.0,0.0,0.0,0.0,0.0,0.0,0.0,0.0,0.0
1710446122.3487659,360,1710446122,348670959,map,0.0004086122062682996,6.0238087248861995e-06,1.59757293936501e-08,0.9999999164998857,0.0,0.0,0.0,0.0,0.0,0.0,0.0,0.0,0.0,-0.0,0.0,-0.0,0.0,0.0,0.0,0.0,0.0,0.0,0.0,0.0,0.0,1.8519199515802324e-05,-0.006754800230953435,-9.810879360553951,0.0,0.0,0.0,0.0,0.0,0.0,0.0,0.0,0.0
1710446122.3652868,361,1710446122,365150213,map,0.0004086122062682996,6.0238087248861995e-06,1.59757293936501e-08,0.9999999164998857,0.0,0.0,0.0,0.0,0.0,0.0,0.0,0.0,0.0,-0.0,0.0,-0.0,0.0,0.0,0.0,0.0,0.0,0.0,0.0,0.0,0.0,1.7912846354722218e-05,-0.006747145014412216,-9.810487273768661,0.0,0.0,0.0,0.0,0.0,0.0,0.0,0.0,0.0
1710446122.382317,362,1710446122,382149696,map,0.0004086122062682996,6.0238087248861995e-06,1.59757293936501e-08,0.9999999164998857,0.0,0.0,0.0,0.0,0.0,0.0,0.0,0.0,0.0,-0.0,0.0,-0.0,0.0,0.0,0.0,0.0,0.0,0.0,0.0,0.0,0.0,1.7942137589434246e-05,-0.006754303192122525,-9.810476097898295,0.0,0.0,0.0,0.0,0.0,0.0,0.0,0.0,0.0
1710446122.3987012,363,1710446122,398585558,map,0.0004086122062682996,6.0238087248861995e-06,1.59757293936501e-08,0.9999999164998857,0.0,0.0,0.0,0.0,0.0,0.0,0.0,0.0,0.0,-0.0,0.0,-0.0,0.0,0.0,0.0,0.0,0.0,0.0,0.0,0.0,0.0,1.9772110120399083e-05,-0.006754324792620666,-9.810476097898295,0.0,0.0,0.0,0.0,0.0,0.0,0.0,0.0,0.0
1710446122.41513,364,1710446122,415012121,map,0.0004086122062682996,6.0238087248861995e-06,1.59757293936501e-08,0.9999999164998857,0.0,0.0,0.0,0.0,0.0,0.0,0.0,0.0,0.0,-0.0,0.0,-0.0,0.0,0.0,0.0,0.0,0.0,0.0,0.0,0.0,0.0,1.7919235021791673e-05,-0.006754135845105347,-9.810475632237031,0.0,0.0,0.0,0.0,0.0,0.0,0.0,0.0,0.0
1710446122.4323916,365,1710446122,432229042,map,0.0004086122062682996,6.0238087248861995e-06,1.59757293936501e-08,0.9999999164998857,0.0,0.0,0.0,0.0,0.0,0.0,0.0,0.0,0.0,-0.0,0.0,-0.0,0.0,0.0,0.0,0.0,0.0,0.0,0.0,0.0,0.0,1.802806795928034e-05,-0.006746541337332587,-9.810475632237031,0.0,0.0,0.0,0.0,0.0,0.0,0.0,0.0,0.0
1710446122.4493153,366,1710446122,449215651,map,0.0004086122062682996,6.0238087248861995e-06,1.59757293936501e-08,0.9999999164998857,0.0,0.0,0.0,0.0,0.0,0.0,0.0,0.0,0.0,-0.0,0.0,-0.0,0.0,0.0,0.0,0.0,0.0,0.0,0.0,0.0,0.0,1.7986378642596593e-05,-0.006746265078330046,-9.81040997399864,0.0,0.0,0.0,0.0,0.0,0.0,0.0,0.0,0.0
1710446122.4656522,367,1710446122,465526104,map,0.0004080720392456909,6.045129556526475e-06,1.6415612209831047e-08,0.9999999167203301,0.0,0.0,0.0,0.0,0.0,0.0,0.0,0.0,0.0,-0.00010803341397986219,4.264203334393996e-06,8.55856955920789e-08,0.0,0.0,0.0,0.0,0.0,0.0,0.0,0.0,0.0,1.7915080123341664e-05,-0.006753461454816014,-9.810135233852177,0.0,0.0,0.0,0.0,0.0,0.0,0.0,0.0,0.0
1710446122.482572,368,1710446122,482330799,map,0.00040752814693291076,6.0663262421523126e-06,1.68617762242378e-08,0.999999916942001,0.0,0.0,0.0,0.0,0.0,0.0,0.0,0.0,0.0,-0.00010877847206020349,4.2393746559528906e-06,8.684756564097161e-08,0.0,0.0,0.0,0.0,0.0,0.0,0.0,0.0,0.0,9.200401558816887e-06,-0.0072053634300637895,-9.810813236654294,0.0,0.0,0.0,0.0,0.0,0.0,0.0,0.0,0.0
1710446122.4991462,369,1710446122,499013424,map,0.00040752814693291076,6.0663262421523126e-06,1.68617762242378e-08,0.999999916942001,0.0,0.0,0.0,0.0,0.0,0.0,0.0,0.0,0.0,-0.0,0.0,-0.0,0.0,0.0,0.0,0.0,0.0,0.0,0.0,0.0,0.0,3.7090806440859047e-06,-0.006623030825829881,-9.810556191635909,0.0,0.0,0.0,0.0,0.0,0.0,0.0,0.0,0.0
1710446122.516047,370,1710446122,515857935,map,0.00040752814693291076,6.0663262421523126e-06,1.68617762242378e-08,0.999999916942001,0.0,0.0,0.0,0.0,0.0,0.0,0.0,0.0,0.0,-0.0,0.0,-0.0,0.0,0.0,0.0,0.0,0.0,0.0,0.0,0.0,0.0,4.057964704698499e-05,-0.005669131454792731,-9.810479357527152,0.0,0.0,0.0,0.0,0.0,0.0,0.0,0.0,0.0
1710446122.5322967,371,1710446122,532171488,map,0.00040752814693291076,6.0663262421523126e-06,1.68617762242378e-08,0.999999916942001,0.0,0.0,0.0,0.0,0.0,0.0,0.0,0.0,0.0,-0.0,0.0,-0.0,0.0,0.0,0.0,0.0,0.0,0.0,0.0,0.0,0.0,2.0050412821387673e-05,-0.006509925842715923,-9.810476563559561,0.0,0.0,0.0,0.0,0.0,0.0,0.0,0.0,0.0
1710446122.5489292,372,1710446122,548813581,map,0.00040752814693291076,6.0663262421523126e-06,1.68617762242378e-08,0.999999916942001,0.0,0.0,0.0,0.0,0.0,0.0,0.0,0.0,0.0,-0.0,0.0,-0.0,0.0,0.0,0.0,0.0,0.0,0.0,0.0,0.0,0.0,1.736357908250006e-05,-0.006576427182656213,-9.81006817862999,0.0,0.0,0.0,0.0,0.0,0.0,0.0,0.0,0.0
1710446122.5674808,373,1710446122,567359447,map,0.00040752814693291076,6.0663262421523126e-06,1.68617762242378e-08,0.999999916942001,0.0,0.0,0.0,0.0,0.0,0.0,0.0,0.0,0.0,-0.0,0.0,-0.0,0.0,0.0,0.0,0.0,0.0,0.0,0.0,0.0,0.0,1.8216513653815848e-05,-0.006634776039850709,-9.810811374009234,0.0,0.0,0.0,0.0,0.0,0.0,0.0,0.0,0.0
1710446122.5821748,374,1710446122,582033873,map,0.00040752814693291076,6.0663262421523126e-06,1.68617762242378e-08,0.999999916942001,0.0,0.0,0.0,0.0,0.0,0.0,0.0,0.0,0.0,-0.0,0.0,-0.0,0.0,0.0,0.0,0.0,0.0,0.0,0.0,0.0,0.0,1.4102733421792755e-05,-0.006535488326963475,-9.810556191635909,0.0,0.0,0.0,0.0,0.0,0.0,0.0,0.0,0.0
1710446122.5988462,375,1710446122,598692894,map,0.00040831045779409446,5.84919846956338e-06,-1.2453431479870598e-07,0.9999999166241672,0.0,0.0,0.0,0.0,0.0,0.0,0.0,0.0,0.0,0.0001564623498275151,-4.343709984951487e-05,-2.8260535587013962e-05,0.0,0.0,0.0,0.0,0.0,0.0,0.0,0.0,0.0,1.0068882804452677e-05,-0.007877119368118036,-9.810477494882091,0.0,0.0,0.0,0.0,0.0,0.0,0.0,0.0,0.0
1710446122.6153336,376,1710446122,615193844,map,0.00041213260513199074,5.445242282043878e-06,-4.167363134442208e-07,0.9999999150584422,0.0,0.0,0.0,0.0,0.0,0.0,0.0,0.0,0.0,0.0007644298599983159,-8.081521878903882e-05,-5.840262680134073e-05,0.0,0.0,0.0,0.0,0.0,0.0,0.0,0.0,0.0,0.0023074480607154623,-0.010176718177291214,-9.81047376959197,0.0,0.0,0.0,0.0,0.0,0.0,0.0,0.0,0.0
1710446122.632071,377,1710446122,631963968,map,0.0004186444116639664,5.650645740471408e-06,-4.1537567977799796e-07,0.9999999123523733,0.0,0.0,0.0,0.0,0.0,0.0,0.0,0.0,0.0,0.0013023614001761736,4.1081347743732025e-05,2.6201995115108907e-07,0.0,0.0,0.0,0.0,0.0,0.0,0.0,0.0,0.0,0.00059967647552639,-0.012028560260496732,-9.811419061960306,0.0,0.0,0.0,0.0,0.0,0.0,0.0,0.0,0.0
1710446122.648676,378,1710446122,648563862,map,0.00042796511210506865,5.6491649427305474e-06,-4.447980011745948e-07,0.9999999084068718,0.0,0.0,0.0,0.0,0.0,0.0,0.0,0.0,0.0,0.0018641402885777114,-2.9789899090183627e-07,-5.873803734171763e-06,0.0,0.0,0.0,0.0,0.0,0.0,0.0,0.0,0.0,-0.0037918206789763252,-0.015643743320671227,-9.810878894892685,0.0,0.0,0.0,0.0,0.0,0.0,0.0,0.0,0.0
1710446122.6652427,379,1710446122,665139675,map,0.00044047833466095824,5.709093911030532e-06,-4.7069972822732863e-07,0.999999902973006,0.0,0.0,0.0,0.0,0.0,0.0,0.0,0.0,0.0,0.002502644771362452,1.198463015467659e-05,-5.171487036112805e-06,0.0,0.0,0.0,0.0,0.0,0.0,0.0,0.0,0.0,0.0010143356747924679,-0.021105094581623726,-9.810984134338618,0.0,0.0,0.0,0.0,0.0,0.0,0.0,0.0,0.0
1710446122.6823006,380,1710446122,682155371,map,0.00045586008267320025,5.7686802165573e-06,-4.961042725415394e-07,0.9999998960790253,0.0,0.0,0.0,0.0,0.0,0.0,0.0,0.0,0.0,0.0030763499351105375,1.1916399862110244e-05,-5.0687784410770306e-06,0.0,0.0,0.0,0.0,0.0,0.0,0.0,0.0,0.0,-0.0002851656979442001,-0.02712068506630143,-9.811441413701035,0.0,0.0,0.0,0.0,0.0,0.0,0.0,0.0,0.0
1710446122.6984591,381,1710446122,698309422,map,0.00047358128604987166,5.827905558480344e-06,-5.220223680734662e-07,0.999999887843258,0.0,0.0,0.0,0.0,0.0,0.0,0.0,0.0,0.0,0.003544241082402718,1.1844380368254482e-05,-5.168783385154114e-06,0.0,0.0,0.0,0.0,0.0,0.0,0.0,0.0,0.0,3.299435234853531e-05,-0.034134321337996154,-9.811285882838462,0.0,0.0,0.0,0.0,0.0,0.0,0.0,0.0,0.0
1710446122.7163315,382,1710446122,716089249,map,0.0004940480274215484,5.8982753835760435e-06,-5.46398868658194e-07,0.9999998779407219,0.0,0.0,0.0,0.0,0.0,0.0,0.0,0.0,0.0,0.004093348774863438,1.4073703518675996e-05,-4.858398167212494e-06,0.0,0.0,0.0,0.0,0.0,0.0,0.0,0.0,0.0,1.4025959282840451e-05,-0.041335434926894093,-9.810909628536187,0.0,0.0,0.0,0.0,0.0,0.0,0.0,0.0,0.0
1710446122.7328975,383,1710446122,732696533,map,0.0005159155077682332,5.9751657244328946e-06,-5.698866551824921e-07,0.9999998668975719,0.0,0.0,0.0,0.0,0.0,0.0,0.0,0.0,0.0,0.0043734966466938,1.5378045846337344e-05,-4.679695638590363e-06,0.0,0.0,0.0,0.0,0.0,0.0,0.0,0.0,0.0,-2.2664516297475803e-05,-0.05210917995887047,-9.811619296304338,0.0,0.0,0.0,0.0,0.0,0.0,0.0,0.0,0.0
1710446122.7487803,384,1710446122,748680830,map,0.0005381108154832147,6.061572113318603e-06,-5.92049195929191e-07,0.9999998551998182,0.0,0.0,0.0,0.0,0.0,0.0,0.0,0.0,0.0,0.004439062176539532,1.7281434424062837e-05,-4.415284011356936e-06,0.0,0.0,0.0,0.0,0.0,0.0,0.0,0.0,0.0,-3.5747847427368848e-06,-0.060426303975233804,-9.810791816236096,0.0,0.0,0.0,0.0,0.0,0.0,0.0,0.0,0.0
1710446122.766254,385,1710446122,766125679,map,0.0005598515395743934,6.159596659493967e-06,-6.126631572161079e-07,0.9999998432639565,0.0,0.0,0.0,0.0,0.0,0.0,0.0,0.0,0.0,0.0043481454873155615,1.960518736933688e-05,-4.107412326052492e-06,0.0,0.0,0.0,0.0,0.0,0.0,0.0,0.0,0.0,-2.9328643008935567e-05,-0.06997895374790379,-9.810879826215215,0.0,0.0,0.0,0.0,0.0,0.0,0.0,0.0,0.0
1710446122.782081,386,1710446122,781869650,map,0.0005799271228007601,6.2697723236158634e-06,-6.313187625708977e-07,0.9999998318223977,0.0,0.0,0.0,0.0,0.0,0.0,0.0,0.0,0.0,0.004015117307236268,2.2035439845859853e-05,-3.7191691672108235e-06,0.0,0.0,0.0,0.0,0.0,0.0,0.0,0.0,0.0,-1.6673875709760536e-05,-0.07973940576965949,-9.810716379111135,0.0,0.0,0.0,0.0,0.0,0.0,0.0,0.0,0.0
1710446122.7986512,387,1710446122,798511982,map,0.0005976967514592648,6.394277535231095e-06,-6.472562863741905e-07,0.999999821358628,0.0,0.0,0.0,0.0,0.0,0.0,0.0,0.0,0.0,0.003553926352502465,2.4901389890479644e-05,-3.180106519453627e-06,0.0,0.0,0.0,0.0,0.0,0.0,0.0,0.0,0.0,-3.3776295710314786e-05,-0.08828719400234111,-9.8105589856035,0.0,0.0,0.0,0.0,0.0,0.0,0.0,0.0,0.0
1710446122.8153646,388,1710446122,815054655,map,0.0006130487036244006,6.53624543956783e-06,-6.598459431391335e-07,0.9999998120640469,0.0,0.0,0.0,0.0,0.0,0.0,0.0,0.0,0.0,0.0030703909937968015,2.839403143396765e-05,-2.5157058330419436e-06,0.0,0.0,0.0,0.0,0.0,0.0,0.0,0.0,0.0,-2.471085352209492e-05,-0.09630939800475789,-9.810269344296552,0.0,0.0,0.0,0.0,0.0,0.0,0.0,0.0,0.0
1710446122.832436,389,1710446122,832250118,map,0.000625107464262505,6.574288646288095e-06,-6.442974434963312e-07,0.9999998045984918,0.0,0.0,0.0,0.0,0.0,0.0,0.0,0.0,0.0,0.002411752564309096,7.612185088228541e-06,3.1207059017383948e-06,0.0,0.0,0.0,0.0,0.0,0.0,0.0,0.0,0.0,-1.2326072909759813e-05,-0.10360703035005503,-9.809647686507523,0.0,0.0,0.0,0.0,0.0,0.0,0.0,0.0,0.0
1710446122.8488545,390,1710446122,848748207,map,0.0006340369819272727,6.660122175014799e-06,-6.240711864447922e-07,0.9999997989761593,0.0,0.0,0.0,0.0,0.0,0.0,0.0,0.0,0.0,0.0017859038489189696,1.717042528391105e-05,4.046106581308851e-06,0.0,0.0,0.0,0.0,0.0,0.0,0.0,0.0,0.0,0.0007135734011143019,-0.10331395570077073,-9.809709619455793,0.0,0.0,0.0,0.0,0.0,0.0,0.0,0.0,0.0
1710446122.8652747,391,1710446122,865092278,map,0.0006407425019763585,6.742377759593027e-06,-5.988628888234711e-07,0.999999794701593,0.0,0.0,0.0,0.0,0.0,0.0,0.0,0.0,0.0,0.0013411042380205667,1.6455186641889804e-05,5.0400489367905855e-06,0.0,0.0,0.0,0.0,0.0,0.0,0.0,0.0,0.0,-0.00016612102725968768,-0.10599609091919787,-9.808771777667701,0.0,0.0,0.0,0.0,0.0,0.0,0.0,0.0,0.0
1710446122.882974,392,1710446122,882871866,map,0.000645786543111758,6.841702747565163e-06,-5.669088696035197e-07,0.9999997914562835,0.0,0.0,0.0,0.0,0.0,0.0,0.0,0.0,0.0,0.0010088083802390578,1.9869729095176284e-05,6.384775337498039e-06,0.0,0.0,0.0,0.0,0.0,0.0,0.0,0.0,0.0,9.439999266879093e-05,-0.11004631164991353,-9.80931008209026,0.0,0.0,0.0,0.0,0.0,0.0,0.0,0.0,0.0
1710446122.8990192,393,1710446122,898898125,map,0.0006500296471010964,6.923386269124e-06,-5.168299283567682e-07,0.9999997887066064,0.0,0.0,0.0,0.0,0.0,0.0,0.0,0.0,0.0,0.0008486208974320215,1.6343696297021667e-05,1.0010972488377459e-05,0.0,0.0,0.0,0.0,0.0,0.0,0.0,0.0,0.0,8.274830383111528e-05,-0.11802928641922203,-9.809226263062525,0.0,0.0,0.0,0.0,0.0,0.0,0.0,0.0,0.0
1710446122.9156868,394,1710446122,915557146,map,0.0006542019705682756,6.992090845974101e-06,-4.608227018358732e-07,0.9999997859853171,0.0,0.0,0.0,0.0,0.0,0.0,0.0,0.0,0.0,0.0008344647854816504,1.374867550539385e-05,1.1198230611300369e-05,0.0,0.0,0.0,0.0,0.0,0.0,0.0,0.0,0.0,0.00034049199885489165,-0.1204178676846798,-9.808260481598522,0.0,0.0,0.0,0.0,0.0,0.0,0.0,0.0,0.0
1710446122.9321907,395,1710446122,932084799,map,0.000659048571267106,7.079693809999486e-06,-3.935996433760439e-07,0.9999997828023284,0.0,0.0,0.0,0.0,0.0,0.0,0.0,0.0,0.0,0.0009693202455267995,1.7529900820497282e-05,1.3439839129119402e-05,0.0,0.0,0.0,0.0,0.0,0.0,0.0,0.0,0.0,0.00030886487632627967,-0.11705626628723034,-9.808816481149158,0.0,0.0,0.0,0.0,0.0,0.0,0.0,0.0,0.0
1710446122.9489954,396,1710446122,948877811,map,0.0006653667006221279,7.1605673869321095e-06,-3.0519174275883645e-07,0.9999997786178689,0.0,0.0,0.0,0.0,0.0,0.0,0.0,0.0,0.0,0.0012636260151311603,1.618697988450823e-05,1.7679759843742584e-05,0.0,0.0,0.0,0.0,0.0,0.0,0.0,0.0,0.0,0.00016686393340541866,-0.11994601003238092,-9.8096025173648,0.0,0.0,0.0,0.0,0.0,0.0,0.0,0.0,0.0
1710446122.9653451,397,1710446122,965218544,map,0.0006736107649662434,7.235776198129675e-06,-2.0934071291494118e-07,0.9999997730980428,0.0,0.0,0.0,0.0,0.0,0.0,0.0,0.0,0.0,0.0016488130950624343,1.5055183290029812e-05,1.9171875420594535e-05,0.0,0.0,0.0,0.0,0.0,0.0,0.0,0.0,0.0,0.0002834002977576373,-0.1218093772318999,-9.808955713867451,0.0,0.0,0.0,0.0,0.0,0.0,0.0,0.0,0.0
1710446122.9820597,398,1710446122,981953144,map,0.0006840490242773915,7.33574235390521e-06,-9.896597633962569e-08,0.9999997660115274,0.0,0.0,0.0,0.0,0.0,0.0,0.0,0.0,0.0,0.0020876521771624715,2.0008774266581112e-05,2.2076371279834324e-05,0.0,0.0,0.0,0.0,0.0,0.0,0.0,0.0,0.0,0.0002764038466717334,-0.12067899087711374,-9.80977388071039,0.0,0.0,0.0,0.0,0.0,0.0,0.0,0.0,0.0
1710446122.998901,399,1710446122,998763323,map,0.0006964728622452786,7.395345120084421e-06,3.749122073658273e-08,0.9999997574354004,0.0,0.0,0.0,0.0,0.0,0.0,0.0,0.0,0.0,0.0024847679825201084,1.1939816807597178e-05,2.730135789541104e-05,0.0,0.0,0.0,0.0,0.0,0.0,0.0,0.0,0.0,0.0001838388625053078,-0.12616963923475555,-9.810209739654608,0.0,0.0,0.0,0.0,0.0,0.0,0.0,0.0,0.0
1710446123.0160542,400,1710446123,15773058,map,0.0007110648178508404,7.502076525945737e-06,1.858731276010272e-07,0.9999997471652226,0.0,0.0,0.0,0.0,0.0,0.0,0.0,0.0,0.0,0.002918391622059649,2.1367283697069377e-05,2.968277786809907e-05,0.0,0.0,0.0,0.0,0.0,0.0,0.0,0.0,0.0,0.0005172879336761571,-0.12644693005898763,-9.809818118530583,0.0,0.0,0.0,0.0,0.0,0.0,0.0,0.0,0.0
1710446123.0323002,401,1710446123,32175303,map,0.0007269606239636624,7.564505977625063e-06,3.6035079390674727e-07,0.9999997357354149,0.0,0.0,0.0,0.0,0.0,0.0,0.0,0.0,0.0,0.0031791617827107055,1.2510681322826306e-05,3.491029803369215e-05,0.0,0.0,0.0,0.0,0.0,0.0,0.0,0.0,0.0,-2.7012701902357237e-06,-0.1323607621885381,-9.811162948264451,0.0,0.0,0.0,0.0,0.0,0.0,0.0,0.0,0.0
1710446123.0489624,402,1710446123,48874140,map,0.0007438957849665458,7.67797353532067e-06,5.48893251525441e-07,0.999999723279866,0.0,0.0,0.0,0.0,0.0,0.0,0.0,0.0,0.0,0.003387032835251488,2.2720355205428065e-05,3.771722162487613e-05,0.0,0.0,0.0,0.0,0.0,0.0,0.0,0.0,0.0,0.0005759730907315146,-0.134425351443288,-9.810362010888324,0.0,0.0,0.0,0.0,0.0,0.0,0.0,0.0,0.0
1710446123.0662265,403,1710446123,66111803,map,0.0007613264994135968,7.743107821242945e-06,7.690318692055489e-07,0.9999997101606651,0.0,0.0,0.0,0.0,0.0,0.0,0.0,0.0,0.0,0.003486143542995435,1.3058479973385941e-05,4.404456106957983e-05,0.0,0.0,0.0,0.0,0.0,0.0,0.0,0.0,0.0,5.83857947568597e-05,-0.14179120452817745,-9.811201598149463,0.0,0.0,0.0,0.0,0.0,0.0,0.0,0.0,0.0
1710446123.0825748,404,1710446123,82404613,map,0.0007784106262630259,7.836816140090962e-06,1.016946326392969e-06,0.9999996970071777,0.0,0.0,0.0,0.0,0.0,0.0,0.0,0.0,0.0,0.003416826008372354,1.8777647114715613e-05,4.959474661894953e-05,0.0,0.0,0.0,0.0,0.0,0.0,0.0,0.0,0.0,0.0005603077699911291,-0.1445561715178869,-9.810722898368846,0.0,0.0,0.0,0.0,0.0,0.0,0.0,0.0,0.0
1710446123.0991228,405,1710446123,98993063,map,0.0007946119045300237,7.93223840934016e-06,1.2747822741585107e-06,0.9999996842636381,0.0,0.0,0.0,0.0,0.0,0.0,0.0,0.0,0.0,0.0032402562660624927,1.912214894592414e-05,5.15774044701038e-05,0.0,0.0,0.0,0.0,0.0,0.0,0.0,0.0,0.0,0.00021550319615522412,-0.14983617249977735,-9.811228140841578,0.0,0.0,0.0,0.0,0.0,0.0,0.0,0.0,0.0
1710446123.1166584,406,1710446123,116449833,map,0.0008097216727984931,8.000432227958385e-06,1.571495819045763e-06,0.9999996721421144,0.0,0.0,0.0,0.0,0.0,0.0,0.0,0.0,0.0,0.0030219541686549102,1.3682977588981837e-05,5.935561992420611e-05,0.0,0.0,0.0,0.0,0.0,0.0,0.0,0.0,0.0,0.0002753842676323366,-0.1536666481796719,-9.811481926231107,0.0,0.0,0.0,0.0,0.0,0.0,0.0,0.0,0.0
1710446123.1325235,407,1710446123,132367611,map,0.0008233189736506758,8.09631471035241e-06,1.9049762510806978e-06,0.9999996610382867,0.0,0.0,0.0,0.0,0.0,0.0,0.0,0.0,0.0,0.002719460567251826,1.9227146574649564e-05,6.67020358308889e-05,0.0,0.0,0.0,0.0,0.0,0.0,0.0,0.0,0.0,0.0005877830707196307,-0.15697816927692845,-9.810642804631234,0.0,0.0,0.0,0.0,0.0,0.0,0.0,0.0,0.0
1710446123.1489594,408,1710446123,148802042,map,0.0008353182251900271,8.196651063263088e-06,2.246567706232571e-06,0.9999996510855544,0.0,0.0,0.0,0.0,0.0,0.0,0.0,0.0,0.0,0.002399850611553596,2.0119775785278602e-05,6.832093842640303e-05,0.0,0.0,0.0,0.0,0.0,0.0,0.0,0.0,0.0,0.00015286750694180892,-0.1614833457248949,-9.81073128027162,0.0,0.0,0.0,0.0,0.0,0.0,0.0,0.0,0.0
1710446123.1660051,409,1710446123,165859222,map,0.0008459798989558395,8.262663866591363e-06,2.6373668323467307e-06,0.9999996421213276,0.0,0.0,0.0,0.0,0.0,0.0,0.0,0.0,0.0,0.00213233489062473,1.3263902028884876e-05,7.816611023290627e-05,0.0,0.0,0.0,0.0,0.0,0.0,0.0,0.0,0.0,0.00039195302562633987,-0.16326993636961637,-9.81050776286433,0.0,0.0,0.0,0.0,0.0,0.0,0.0,0.0,0.0
1710446123.1822398,410,1710446123,182044983,map,0.0008551516079665782,8.348005824856224e-06,3.060565334706801e-06,0.9999996343182688,0.0,0.0,0.0,0.0,0.0,0.0,0.0,0.0,0.0,0.0018343418043622608,1.7135940388715765e-05,8.464023416836154e-05,0.0,0.0,0.0,0.0,0.0,0.0,0.0,0.0,0.0,0.000574745180571888,-0.16448998124785724,-9.8096132275739,0.0,0.0,0.0,0.0,0.0,0.0,0.0,0.0,0.0
1710446123.1989717,411,1710446123,198774815,map,0.0008632541087718299,8.427471050842877e-06,3.5198997212885724e-06,0.9999996273543964,0.0,0.0,0.0,0.0,0.0,0.0,0.0,0.0,0.0,0.001620500033916403,1.5967395823780384e-05,9.186665559381217e-05,0.0,0.0,0.0,0.0,0.0,0.0,0.0,0.0,0.0,0.000290134892541569,-0.16419945807215072,-9.809597860752147,0.0,0.0,0.0,0.0,0.0,0.0,0.0,0.0,0.0
1710446123.2154703,412,1710446123,215353251,map,0.000870987805933132,8.508547902566779e-06,4.018215501630453e-06,0.9999996206457783,0.0,0.0,0.0,0.0,0.0,0.0,0.0,0.0,0.0,0.001546739223186114,1.6296736627183524e-05,9.966203473776094e-05,0.0,0.0,0.0,0.0,0.0,0.0,0.0,0.0,0.0,0.0004384793475431748,-0.16498448111074182,-9.80960531133239,0.0,0.0,0.0,0.0,0.0,0.0,0.0,0.0,0.0
1710446123.2321506,413,1710446123,232057333,map,0.000878557590286022,8.590267766696627e-06,4.556834170391267e-06,0.9999996140209271,0.0,0.0,0.0,0.0,0.0,0.0,0.0,0.0,0.0,0.001513956590549991,1.6432535987226622e-05,0.00010772221999661069,0.0,0.0,0.0,0.0,0.0,0.0,0.0,0.0,0.0,0.00045280024333165794,-0.1653144062098549,-9.809615555880224,0.0,0.0,0.0,0.0,0.0,0.0,0.0,0.0,0.0
1710446123.2487242,414,1710446123,248626471,map,0.0008864365733467996,8.67650235867483e-06,5.138048560969514e-06,0.9999996070641829,0.0,0.0,0.0,0.0,0.0,0.0,0.0,0.0,0.0,0.0015757962962818404,1.734278497170114e-05,0.00011624108705238902,0.0,0.0,0.0,0.0,0.0,0.0,0.0,0.0,0.0,0.0004199463546171697,-0.1652477461630967,-9.809085167699173,0.0,0.0,0.0,0.0,0.0,0.0,0.0,0.0,0.0
1710446123.2657175,415,1710446123,265607357,map,0.0008952767337481732,8.76410443430809e-06,5.765034058172001e-06,0.9999995991846822,0.0,0.0,0.0,0.0,0.0,0.0,0.0,0.0,0.0,0.0017680317734733032,1.762360278355284e-05,0.00012539671207176348,0.0,0.0,0.0,0.0,0.0,0.0,0.0,0.0,0.0,0.0004438968448475236,-0.16528391130870024,-9.809634182330832,0.0,0.0,0.0,0.0,0.0,0.0,0.0,0.0,0.0
1710446123.283009,416,1710446123,282830238,map,0.0009050704607573576,8.85249307788202e-06,6.4391393183396005e-06,0.9999995903637321,0.0,0.0,0.0,0.0,0.0,0.0,0.0,0.0,0.0,0.0019587451045472875,1.7788467420204193e-05,0.0001348221741469399,0.0,0.0,0.0,0.0,0.0,0.0,0.0,0.0,0.0,0.0004543587690105302,-0.165952388063763,-9.809249546125786,0.0,0.0,0.0,0.0,0.0,0.0,0.0,0.0,0.0
1710446123.2989697,417,1710446123,298860312,map,0.0009167939942647861,8.949699400666134e-06,7.165386655159181e-06,0.9999995796785778,0.0,0.0,0.0,0.0,0.0,0.0,0.0,0.0,0.0,0.0023447065003865484,1.955934149229909e-05,0.00014525235311609977,0.0,0.0,0.0,0.0,0.0,0.0,0.0,0.0,0.0,0.0005062367209232375,-0.1661978361157564,-9.808712173025757,0.0,0.0,0.0,0.0,0.0,0.0,0.0,0.0,0.0
1710446123.3163528,418,1710446123,316110373,map,0.0009330250709992412,9.058460285179172e-06,7.945423351085161e-06,0.999999564659421,0.0,0.0,0.0,0.0,0.0,0.0,0.0,0.0,0.0,0.003246215479055352,2.187449315806746e-05,0.000156016050495957,0.0,0.0,0.0,0.0,0.0,0.0,0.0,0.0,0.0,0.0004813140377462839,-0.16845560294548212,-9.809670969570783,0.0,0.0,0.0,0.0,0.0,0.0,0.0,0.0,0.0
1710446123.3323138,419,1710446123,332201004,map,0.0009548180005003488,9.17885537192513e-06,8.79348244947827e-06,0.9999995440804007,0.0,0.0,0.0,0.0,0.0,0.0,0.0,0.0,0.0,0.004358586477612804,2.4206362122480736e-05,0.00016962826680461357,0.0,0.0,0.0,0.0,0.0,0.0,0.0,0.0,0.0,0.0005253936271850245,-0.1742198991465011,-9.810172952414657,0.0,0.0,0.0,0.0,0.0,0.0,0.0,0.0,0.0
1710446123.3490074,420,1710446123,348915815,map,0.0009833648734400941,9.338253158257093e-06,9.74735569542007e-06,0.999999516405539,0.0,0.0,0.0,0.0,0.0,0.0,0.0,0.0,0.0,0.005709375769298571,3.201698995418095e-05,0.00019079566332326196,0.0,0.0,0.0,0.0,0.0,0.0,0.0,0.0,0.0,0.0006266424876677981,-0.1826517932033246,-9.810584596973085,0.0,0.0,0.0,0.0,0.0,0.0,0.0,0.0,0.0
1710446123.3655856,421,1710446123,365382195,map,0.0010197535324337644,9.500406277951206e-06,1.0795417614775227e-05,0.999999479947832,0.0,0.0,0.0,0.0,0.0,0.0,0.0,0.0,0.0,0.007277733775673774,3.257349196617867e-05,0.00020964723857526936,0.0,0.0,0.0,0.0,0.0,0.0,0.0,0.0,0.0,0.0005478587350022511,-0.1926308577276778,-9.810709859853421,0.0,0.0,0.0,0.0,0.0,0.0,0.0,0.0,0.0
1710446123.3821287,422,1710446123,381970167,map,0.001062650266784611,9.680535489058967e-06,1.1926987472425725e-05,0.9999994352690629,0.0,0.0,0.0,0.0,0.0,0.0,0.0,0.0,0.0,0.008579349721263124,3.6173785238966244e-05,0.00022635716857176858,0.0,0.0,0.0,0.0,0.0,0.0,0.0,0.0,0.0,0.0008907514089572928,-0.211696724313106,-9.811083320188104,0.0,0.0,0.0,0.0,0.0,0.0,0.0,0.0,0.0
1710446123.3986068,423,1710446123,398516178,map,0.0011105352243649701,9.812281916705003e-06,1.3186288403957844e-05,0.999999383220488,0.0,0.0,0.0,0.0,0.0,0.0,0.0,0.0,0.0,0.009576995015930055,2.651484944306429e-05,0.00025192360918666875,0.0,0.0,0.0,0.0,0.0,0.0,0.0,0.0,0.0,0.0008439903734697025,-0.22829409051843816,-9.811234194438025,0.0,0.0,0.0,0.0,0.0,0.0,0.0,0.0,0.0
1710446123.4151201,424,1710446123,414995193,map,0.0011623390479036468,9.986520521707365e-06,1.4557862080619882e-05,0.9999993243279096,0.0,0.0,0.0,0.0,0.0,0.0,0.0,0.0,0.0,0.01036076912233006,3.503004499810895e-05,0.00027437587025533984,0.0,0.0,0.0,0.0,0.0,0.0,0.0,0.0,0.0,0.00134580763957869,-0.24032232563459444,-9.811448398620012,0.0,0.0,0.0,0.0,0.0,0.0,0.0,0.0,0.0
1710446123.4322662,425,1710446123,432155371,map,0.0012151525590933675,1.0146910491026912e-05,1.6069246790285813e-05,0.9999992615212662,0.0,0.0,0.0,0.0,0.0,0.0,0.0,0.0,0.0,0.010562707105942707,3.2291643433920564e-05,0.0003023434146829215,0.0,0.0,0.0,0.0,0.0,0.0,0.0,0.0,0.0,0.0009417235468226222,-0.25722842343975827,-9.812059346199943,0.0,0.0,0.0,0.0,0.0,0.0,0.0,0.0,0.0
1710446123.4487,426,1710446123,448517799,map,0.001267224665475694,1.0322367445054756e-05,1.772892553354963e-05,0.9999991968600681,0.0,0.0,0.0,0.0,0.0,0.0,0.0,0.0,0.0,0.010414426442099806,3.534478461700546e-05,0.000331996904115757,0.0,0.0,0.0,0.0,0.0,0.0,0.0,0.0,0.0,0.0013993923790104712,-0.273414873591884,-9.812261443189035,0.0,0.0,0.0,0.0,0.0,0.0,0.0,0.0,0.0
1710446123.4657311,427,1710446123,465547562,map,0.0013175943128957022,1.0502641076695503e-05,1.9551523869691086e-05,0.9999991317259526,0.0,0.0,0.0,0.0,0.0,0.0,0.0,0.0,0.0,0.010073934715646854,3.635652383043764e-05,0.0003645760719792615,0.0,0.0,0.0,0.0,0.0,0.0,0.0,0.0,0.0,0.0012486695457387047,-0.2918139168835387,-9.813796262719102,0.0,0.0,0.0,0.0,0.0,0.0,0.0,0.0,0.0
1710446123.4823375,428,1710446123,482065678,map,0.0013638697882579337,1.0676161103836027e-05,2.1548130964198905e-05,0.9999990696400165,0.0,0.0,0.0,0.0,0.0,0.0,0.0,0.0,0.0,0.00925509981518581,3.506777926492263e-05,0.0003993711697464574,0.0,0.0,0.0,0.0,0.0,0.0,0.0,0.0,0.0,0.0014511594081019676,-0.3096854432687791,-9.813443757141352,0.0,0.0,0.0,0.0,0.0,0.0,0.0,0.0,0.0
1710446123.4988787,429,1710446123,498774290,map,0.0014053212649383505,1.085186224948385e-05,2.3720380134433578e-05,0.9999990121953737,0.0,0.0,0.0,0.0,0.0,0.0,0.0,0.0,0.0,0.008290299336591868,3.557222196876449e-05,0.000434488785100659,0.0,0.0,0.0,0.0,0.0,0.0,0.0,0.0,0.0,0.0015787356733672898,-0.32778431785281265,-9.812668896796076,0.0,0.0,0.0,0.0,0.0,0.0,0.0,0.0,0.0
1710446123.5152137,430,1710446123,514986753,map,0.0014423692061428595,1.1025318702847404e-05,2.609474780506345e-05,0.9999989593837484,0.0,0.0,0.0,0.0,0.0,0.0,0.0,0.0,0.0,0.007409591352896313,3.5200556886123e-05,0.0004749036672261499,0.0,0.0,0.0,0.0,0.0,0.0,0.0,0.0,0.0,0.0016371537942643775,-0.34292386143637876,-9.811946656173767,0.0,0.0,0.0,0.0,0.0,0.0,0.0,0.0,0.0
1710446123.5323784,431,1710446123,532091856,map,0.0014741980208444285,1.1185354704277705e-05,2.86795761264517e-05,0.9999989128956916,0.0,0.0,0.0,0.0,0.0,0.0,0.0,0.0,0.0,0.006365764778912992,3.260326701201206e-05,0.0005169883498375503,0.0,0.0,0.0,0.0,0.0,0.0,0.0,0.0,0.0,0.001721942542256577,-0.3546382572307008,-9.811830706518734,0.0,0.0,0.0,0.0,0.0,0.0,0.0,0.0,0.0
1710446123.5487435,432,1710446123,548663378,map,0.001503534707091613,1.1357908774307453e-05,3.1493802561855337e-05,0.999998869130622,0.0,0.0,0.0,0.0,0.0,0.0,0.0,0.0,0.0,0.005867338370669633,3.5188859483564644e-05,0.000562858646634754,0.0,0.0,0.0,0.0,0.0,0.0,0.0,0.0,0.0,0.0019423277352087793,-0.36099101193722655,-9.809850714819145,0.0,0.0,0.0,0.0,0.0,0.0,0.0,0.0,0.0
1710446123.5656438,433,1710446123,565450907,map,0.0015347899130559537,1.1544943781452967e-05,3.457258461255326e-05,0.9999988215449924,0.0,0.0,0.0,0.0,0.0,0.0,0.0,0.0,0.0,0.0062510425010430465,3.815525532575108e-05,0.0006157695773118164,0.0,0.0,0.0,0.0,0.0,0.0,0.0,0.0,0.0,0.0018960865114456993,-0.371531240122888,-9.809745941034478,0.0,0.0,0.0,0.0,0.0,0.0,0.0,0.0,0.0
1710446123.5821836,434,1710446123,582066059,map,0.0015691967063145695,1.1732916412539179e-05,3.7950455689068945e-05,0.9999987680211404,0.0,0.0,0.0,0.0,0.0,0.0,0.0,0.0,0.0,0.006881360343825075,3.84168086957747e-05,0.0006755942130617221,0.0,0.0,0.0,0.0,0.0,0.0,0.0,0.0,0.0,0.0021732689921265774,-0.3830920377307861,-9.809218812482284,0.0,0.0,0.0,0.0,0.0,0.0,0.0,0.0,0.0
1710446123.5986888,435,1710446123,598509789,map,0.0016093478813250348,1.1951684414398963e-05,4.165433295660525e-05,0.9999987040598957,0.0,0.0,0.0,0.0,0.0,0.0,0.0,0.0,0.0,0.008030237988443276,4.464111187237073e-05,0.0007407987946347779,0.0,0.0,0.0,0.0,0.0,0.0,0.0,0.0,0.0,0.0025403974676285386,-0.3899743784440744,-9.808231144938816,0.0,0.0,0.0,0.0,0.0,0.0,0.0,0.0,0.0
1710446123.6151063,436,1710446123,614967823,map,0.0016580671980582788,1.2196716611339541e-05,4.572694047480149e-05,0.9999986242857806,0.0,0.0,0.0,0.0,0.0,0.0,0.0,0.0,0.0,0.00974386850296805,4.995122559922555e-05,0.0008145562672040859,0.0,0.0,0.0,0.0,0.0,0.0,0.0,0.0,0.0,0.002628950230319518,-0.4027898039245931,-9.80770401638662,0.0,0.0,0.0,0.0,0.0,0.0,0.0,0.0,0.0
1710446123.6321244,437,1710446123,631941080,map,0.0017143116754713271,1.246219570184305e-05,5.0201732262780606e-05,0.999998529228898,0.0,0.0,0.0,0.0,0.0,0.0,0.0,0.0,0.0,0.011248902805714276,5.411583961232136e-05,0.0008950041165765816,0.0,0.0,0.0,0.0,0.0,0.0,0.0,0.0,0.0,0.0029889183964830644,-0.41882754351459006,-9.807736612675184,0.0,0.0,0.0,0.0,0.0,0.0,0.0,0.0,0.0
1710446123.6486614,438,1710446123,648566008,map,0.0017780700374996079,1.276316308099657e-05,5.5103734888869136e-05,0.999998417632559,0.0,0.0,0.0,0.0,0.0,0.0,0.0,0.0,0.0,0.012751682425220602,6.129673365928029e-05,0.000980452021011897,0.0,0.0,0.0,0.0,0.0,0.0,0.0,0.0,0.0,0.0033265853130818946,-0.4374567953657391,-9.80744929967456,0.0,0.0,0.0,0.0,0.0,0.0,0.0,0.0,0.0
1710446123.6654305,439,1710446123,665317535,map,0.0018495806962585508,1.3103867869526361e-05,6.047400623748304e-05,0.9999982876097495,0.0,0.0,0.0,0.0,0.0,0.0,0.0,0.0,0.0,0.014302145044989462,6.933963521557152e-05,0.001074110428391505,0.0,0.0,0.0,0.0,0.0,0.0,0.0,0.0,0.0,0.003439013376374501,-0.45976391992488885,-9.806839283417162,0.0,0.0,0.0,0.0,0.0,0.0,0.0,0.0,0.0
1710446123.682498,440,1710446123,682320833,map,0.001925710686663345,1.346361546267657e-05,6.634701613699619e-05,0.9999981435258547,0.0,0.0,0.0,0.0,0.0,0.0,0.0,0.0,0.0,0.015226013850823571,7.32909444375273e-05,0.0011746625779842045,0.0,0.0,0.0,0.0,0.0,0.0,0.0,0.0,0.0,0.003765469407064416,-0.4834965463941229,-9.807318914520307,0.0,0.0,0.0,0.0,0.0,0.0,0.0,0.0,0.0
1710446123.6989405,441,1710446123,698797941,map,0.002006817749064546,1.3865807944524777e-05,7.276258618778487e-05,0.9999979835959009,0.0,0.0,0.0,0.0,0.0,0.0,0.0,0.0,0.0,0.016221431515293414,8.193751632235844e-05,0.0012831706063630695,0.0,0.0,0.0,0.0,0.0,0.0,0.0,0.0,0.0,0.004169904202381915,-0.5041481251022272,-9.807622991326477,0.0,0.0,0.0,0.0,0.0,0.0,0.0,0.0,0.0
1710446123.7156568,442,1710446123,715539217,map,0.002093721202610765,1.4318410795875202e-05,7.980847376427054e-05,0.999997804876149,0.0,0.0,0.0,0.0,0.0,0.0,0.0,0.0,0.0,0.01738071381407717,9.220664915214441e-05,0.001409228605926657,0.0,0.0,0.0,0.0,0.0,0.0,0.0,0.0,0.0,0.004345469214342498,-0.5341951256033951,-9.808148257233611,0.0,0.0,0.0,0.0,0.0,0.0,0.0,0.0,0.0
